naam,latitude,longitude,provincie,honden_toegestaan,stroom,waterfront,aantal_plekken,prijs,website,telefoon,openingstijden,afbeelding
Beekse Bergen,51.528243,5.1247698,North Brabant,Onbekend,Nee,Nee,Onbekend,Onbekend,,,Onbekend,https://images.unsplash.com/photo-1523987355523-c7b5b0dd90a7?auto=format&fit=crop&w=300&q=80
Bergumermeer,53.191389,6.024722,Friesland,Onbekend,Nee,Nee,Onbekend,Onbekend,https://www.bergumermeer.nl,,Onbekend,https://images.unsplash.com/photo-1523987355523-c7b5b0dd90a7?auto=format&fit=crop&w=300&q=80
Betuwestrand,51.8984215,5.1838575,Gelderland,Onbekend,Nee,Nee,Onbekend,Onbekend,,,Onbekend,https://images.unsplash.com/photo-1523987355523-c7b5b0dd90a7?auto=format&fit=crop&w=300&q=80
Callassande Roompot,52.8563506,4.7171451,North Holland,Onbekend,Nee,Nee,Onbekend,Onbekend,https://www.roompot.nl/bestemmingen/nederland/noord-holland/vakantiepark-callassande,,Onbekend,https://images.unsplash.com/photo-1523987355523-c7b5b0dd90a7?auto=format&fit=crop&w=300&q=80
De Krim,53.1522373,4.8586531,North Holland,Onbekend,Nee,Nee,Onbekend,Onbekend,https://www.krim.nl,+31 222 390 112,Onbekend,https://images.unsplash.com/photo-1523987355523-c7b5b0dd90a7?auto=format&fit=crop&w=300&q=80
De Paal,51.3361871,5.3554839,North Brabant,Onbekend,Nee,Nee,Onbekend,Onbekend,https://www.depaal.nl/,+31 497 571 977,Onbekend,https://images.unsplash.com/photo-1523987355523-c7b5b0dd90a7?auto=format&fit=crop&w=300&q=80
Ardoer camping Duinoord,51.6723899,3.7064478,Zeeland,Onbekend,Nee,Nee,Onbekend,Onbekend,https://duinoord.ardoer.com/nl/kamperen,+31 111 658 888,Onbekend,https://images.unsplash.com/photo-1523987355523-c7b5b0dd90a7?auto=format&fit=crop&w=300&q=80
It Wiid,53.1267511,5.9455177,Friesland,Onbekend,Nee,Nee,Onbekend,Onbekend,https://www.wiid.nl/,+31 511 539 223,Onbekend,https://images.unsplash.com/photo-1523987355523-c7b5b0dd90a7?auto=format&fit=crop&w=300&q=80
Latour,51.4964026,5.3199301,North Brabant,Onbekend,Nee,Nee,Onbekend,Onbekend,,,Onbekend,https://images.unsplash.com/photo-1523987355523-c7b5b0dd90a7?auto=format&fit=crop&w=300&q=80
Siblu Camping Lauwersoog,53.4038462,6.2115864,Friesland,Onbekend,Nee,Nee,Onbekend,Betaald,https://siblu.nl/camping/nederland/waddenzee/lauwersoog,+31 519 349 133,Onbekend,https://images.unsplash.com/photo-1523987355523-c7b5b0dd90a7?auto=format&fit=crop&w=300&q=80
Molenhoek,51.5781299,3.6980029,Zeeland,Onbekend,Nee,Nee,Onbekend,Onbekend,https://www.demolenhoek.com,,Onbekend,https://images.unsplash.com/photo-1523987355523-c7b5b0dd90a7?auto=format&fit=crop&w=300&q=80
Molengroet,52.694722,4.771111,North Holland,Onbekend,Nee,Nee,Onbekend,Onbekend,https://www.europarcs.nl/vakantieparken/nederland/noord-holland/molengroet,,Onbekend,https://images.unsplash.com/photo-1523987355523-c7b5b0dd90a7?auto=format&fit=crop&w=300&q=80
RCN de Potten,53.0308971,5.7257319,Friesland,Onbekend,Nee,Nee,Onbekend,Onbekend,https://www.villaparksneekermeer.nl/nl/villapark/friesland/villapark-sneekermeer,,Onbekend,https://images.unsplash.com/photo-1523987355523-c7b5b0dd90a7?auto=format&fit=crop&w=300&q=80
Roompot,51.5901281,3.7205546,Zeeland,Onbekend,Nee,Nee,Onbekend,Onbekend,https://www.roompot.be/,+31 113 374 000,Onbekend,https://images.unsplash.com/photo-1523987355523-c7b5b0dd90a7?auto=format&fit=crop&w=300&q=80
Bergsehaak,52.1396557,6.7251638,Overijssel,Onbekend,Nee,Nee,Onbekend,Onbekend,https://www.poelmanvakantieparken.nl/bergsehaak,,Onbekend,https://images.unsplash.com/photo-1523987355523-c7b5b0dd90a7?auto=format&fit=crop&w=300&q=80
Tempelhof,52.846111,4.715278,North Holland,Onbekend,Nee,Nee,Onbekend,Onbekend,https://www.tempelhof.nl,,Onbekend,https://images.unsplash.com/photo-1523987355523-c7b5b0dd90a7?auto=format&fit=crop&w=300&q=80
Uitdam,52.4266757,5.0740884,North Holland,Onbekend,Nee,Nee,Onbekend,Onbekend,https://www.europarcs.nl/vakantieparken/nederland/noord-holland/camping-en-jachthaven-uitdam,,Onbekend,https://images.unsplash.com/photo-1523987355523-c7b5b0dd90a7?auto=format&fit=crop&w=300&q=80
Vinkeloord,51.704722,5.430833,North Brabant,Onbekend,Nee,Nee,Onbekend,Onbekend,,,Onbekend,https://images.unsplash.com/photo-1523987355523-c7b5b0dd90a7?auto=format&fit=crop&w=300&q=80
EuroParcs De Zanding,52.088145,5.7779883,Gelderland,Onbekend,Nee,Nee,Onbekend,Onbekend,https://www.europarcs.nl/vakantieparken/nederland/gelderland/de-zanding,+31 88 070 8090,Onbekend,https://images.unsplash.com/photo-1523987355523-c7b5b0dd90a7?auto=format&fit=crop&w=300&q=80
"Camping, De Vaarselhof",51.3871568,5.6676795,North Brabant,Onbekend,Nee,Nee,Onbekend,Onbekend,,,Onbekend,https://images.unsplash.com/photo-1523987355523-c7b5b0dd90a7?auto=format&fit=crop&w=300&q=80
Veenmeer,53.0839542,6.6393911,Drenthe,Onbekend,Nee,Nee,Onbekend,Onbekend,https://www.campingveenmeer.nl,+31 592 543 625,Onbekend,https://images.unsplash.com/photo-1523987355523-c7b5b0dd90a7?auto=format&fit=crop&w=300&q=80
Ponderosa,51.4692506,4.8796122,North Brabant,Onbekend,Nee,Nee,Onbekend,Onbekend,https://www.ponderosa.nl/,,Onbekend,https://images.unsplash.com/photo-1523987355523-c7b5b0dd90a7?auto=format&fit=crop&w=300&q=80
De Paddock,51.4527207,4.9170277,North Brabant,Onbekend,Nee,Nee,Onbekend,Onbekend,https://depaddock.nl/,+31 13 507 9072,Onbekend,https://images.unsplash.com/photo-1523987355523-c7b5b0dd90a7?auto=format&fit=crop&w=300&q=80
De Kievit,51.4291854,4.9575251,North Brabant,Onbekend,Nee,Nee,Onbekend,Onbekend,,,Onbekend,https://images.unsplash.com/photo-1523987355523-c7b5b0dd90a7?auto=format&fit=crop&w=300&q=80
Natuurkampeerterrein Het Leenderbos,51.3482887,5.5209639,North Brabant,Onbekend,Nee,Nee,Onbekend,Betaald,https://www.natuurkampeerterreinen.nl/terreinen/noord-brabant/het-leenderbos/,,Onbekend,https://images.unsplash.com/photo-1523987355523-c7b5b0dd90a7?auto=format&fit=crop&w=300&q=80
de Greidpôlle,53.287842,6.0876506,Friesland,Onbekend,Nee,Nee,Onbekend,Onbekend,https://www.campingdegreidpolle.nl,,Onbekend,https://images.unsplash.com/photo-1523987355523-c7b5b0dd90a7?auto=format&fit=crop&w=300&q=80
Vakantiepark Herperduin,51.7622431,5.6214785,North Brabant,Onbekend,Nee,Nee,Onbekend,Onbekend,,,Onbekend,https://images.unsplash.com/photo-1523987355523-c7b5b0dd90a7?auto=format&fit=crop&w=300&q=80
Clementie,51.9861199,5.0572959,Utrecht,Onbekend,Nee,Nee,Onbekend,Onbekend,,,Onbekend,https://images.unsplash.com/photo-1523987355523-c7b5b0dd90a7?auto=format&fit=crop&w=300&q=80
Jachthaven 'De Lemsterpoort',52.893288,5.6448517,Friesland,Onbekend,Nee,Nee,Onbekend,Onbekend,,,Onbekend,https://images.unsplash.com/photo-1523987355523-c7b5b0dd90a7?auto=format&fit=crop&w=300&q=80
Camping Seedune,53.4853241,6.1608075,Friesland,Onbekend,Ja,Nee,Onbekend,Onbekend,http://www.seedune.nl/,+31 519 531 398,Onbekend,https://images.unsplash.com/photo-1523987355523-c7b5b0dd90a7?auto=format&fit=crop&w=300&q=80
Internationaal Priem,51.4945732,4.6021342,North Brabant,Onbekend,Nee,Nee,Onbekend,Onbekend,https://www.internationaalpriem.nl,+31 76 597 2632,Onbekend,https://images.unsplash.com/photo-1523987355523-c7b5b0dd90a7?auto=format&fit=crop&w=300&q=80
Surfcamp Veluwemeer,52.4152772,5.7472654,Gelderland,Onbekend,Nee,Nee,Onbekend,Onbekend,https://www.surfcamp-veluwemeer.de,,Onbekend,https://images.unsplash.com/photo-1523987355523-c7b5b0dd90a7?auto=format&fit=crop&w=300&q=80
De Kienehoef,51.5773721,5.4451886,North Brabant,Onbekend,Nee,Nee,Onbekend,Onbekend,https://www.kienehoef.nl/nl/camping,,Onbekend,https://images.unsplash.com/photo-1523987355523-c7b5b0dd90a7?auto=format&fit=crop&w=300&q=80
De Vest,52.7085632,5.2860006,North Holland,Onbekend,Nee,Nee,Onbekend,Onbekend,https://www.campingdevest.nl,,Onbekend,https://images.unsplash.com/photo-1523987355523-c7b5b0dd90a7?auto=format&fit=crop&w=300&q=80
Natuurcamping De Pomp,53.3288687,6.1876279,Friesland,Onbekend,Nee,Nee,Onbekend,Onbekend,,,Onbekend,https://images.unsplash.com/photo-1523987355523-c7b5b0dd90a7?auto=format&fit=crop&w=300&q=80
De Kuilart,52.9033483,5.4670912,Friesland,Onbekend,Nee,Nee,Onbekend,Onbekend,https://www.kuilart.nl/,,Onbekend,https://images.unsplash.com/photo-1523987355523-c7b5b0dd90a7?auto=format&fit=crop&w=300&q=80
De Eekhoorn,51.6127338,4.8666346,North Brabant,Onbekend,Nee,Nee,Onbekend,Onbekend,https://www.campingdeeekhoorn.nl/,,Onbekend,https://images.unsplash.com/photo-1523987355523-c7b5b0dd90a7?auto=format&fit=crop&w=300&q=80
Boeren camping,51.7910025,5.0927051,North Brabant,Onbekend,Nee,Nee,Onbekend,Onbekend,,,Onbekend,https://images.unsplash.com/photo-1523987355523-c7b5b0dd90a7?auto=format&fit=crop&w=300&q=80
Camping Waalstrand,51.875985,5.9890121,Gelderland,Onbekend,Ja,Nee,Onbekend,Onbekend,,,Onbekend,https://images.unsplash.com/photo-1523987355523-c7b5b0dd90a7?auto=format&fit=crop&w=300&q=80
Camping De Waterjuffer,52.2097638,6.286021,Gelderland,Onbekend,Nee,Nee,Onbekend,Onbekend,https://www.campingdewaterjuffer.nl,+31 573 431 359,Onbekend,https://images.unsplash.com/photo-1523987355523-c7b5b0dd90a7?auto=format&fit=crop&w=300&q=80
Minicamping 't Laageind,51.5285752,5.3369097,North Brabant,Onbekend,Nee,Nee,Onbekend,Onbekend,https://www.laageind.nl/,,Onbekend,https://images.unsplash.com/photo-1523987355523-c7b5b0dd90a7?auto=format&fit=crop&w=300&q=80
Boxbergen,52.3269452,6.1840042,Overijssel,Onbekend,Nee,Nee,Onbekend,Onbekend,,,Onbekend,https://images.unsplash.com/photo-1523987355523-c7b5b0dd90a7?auto=format&fit=crop&w=300&q=80
De Linderbeek,52.4455801,6.4983753,Overijssel,Onbekend,Nee,Nee,Onbekend,Onbekend,https://www.linderbeek.nl/,+31 546 671 422,Onbekend,https://images.unsplash.com/photo-1523987355523-c7b5b0dd90a7?auto=format&fit=crop&w=300&q=80
Minicamping,51.8105232,4.7504001,South Holland,Onbekend,Nee,Nee,Onbekend,Onbekend,,,Onbekend,https://images.unsplash.com/photo-1523987355523-c7b5b0dd90a7?auto=format&fit=crop&w=300&q=80
Natuurkampeerterrein Twilhaar,52.3655865,6.4149744,Overijssel,Onbekend,Nee,Nee,30,Onbekend,,,Onbekend,https://images.unsplash.com/photo-1523987355523-c7b5b0dd90a7?auto=format&fit=crop&w=300&q=80
Mounewetter,53.0988455,5.4707078,Friesland,Onbekend,Nee,Nee,Onbekend,Onbekend,https://www.mounewetter.nl/,+31 517 531 967,Onbekend,https://images.unsplash.com/photo-1523987355523-c7b5b0dd90a7?auto=format&fit=crop&w=300&q=80
Mini camping 'de Hartjens',51.8873384,6.2991583,Gelderland,Onbekend,Nee,Nee,Onbekend,Betaald,https://www.dehartjens.nl/,,Onbekend,https://images.unsplash.com/photo-1523987355523-c7b5b0dd90a7?auto=format&fit=crop&w=300&q=80
De Maarsdijk,53.2234293,6.3707402,Groningen,Onbekend,Nee,Nee,Onbekend,Onbekend,http://www.maarsdijk.nl/,+31 594 504 661,Onbekend,https://images.unsplash.com/photo-1523987355523-c7b5b0dd90a7?auto=format&fit=crop&w=300&q=80
Strandcamping Terherne,53.0395786,5.7694192,Friesland,Onbekend,Nee,Nee,Onbekend,Onbekend,https://www.strandcamping.nl,,Onbekend,https://images.unsplash.com/photo-1523987355523-c7b5b0dd90a7?auto=format&fit=crop&w=300&q=80
MarinaPark Bad Nederrijn,51.9631784,5.40511,Utrecht,Onbekend,Nee,Nee,Onbekend,Onbekend,https://www.marinaparken.nl/marinapark-bad-nederrijn,,Onbekend,https://images.unsplash.com/photo-1523987355523-c7b5b0dd90a7?auto=format&fit=crop&w=300&q=80
't Oppertje,52.4859152,5.4163631,Flevoland,Onbekend,Nee,Nee,Onbekend,Onbekend,https://www.oppertje.nl/,,Onbekend,https://images.unsplash.com/photo-1523987355523-c7b5b0dd90a7?auto=format&fit=crop&w=300&q=80
Camping Ekenstein,53.3185375,6.81198,Groningen,Onbekend,Nee,Nee,Onbekend,Onbekend,https://www.campingekenstein.nl/,+31 596 624 467,Onbekend,https://images.unsplash.com/photo-1523987355523-c7b5b0dd90a7?auto=format&fit=crop&w=300&q=80
Buytenplaets Suydersee,52.5206091,5.4988737,Flevoland,Onbekend,Nee,Nee,Onbekend,Onbekend,https://www.buytenplaets-suydersee.nl/,+31 6 10943935,Onbekend,https://images.unsplash.com/photo-1523987355523-c7b5b0dd90a7?auto=format&fit=crop&w=300&q=80
Residence Waterweelde,51.7080582,4.6272615,South Holland,Onbekend,Nee,Nee,Onbekend,Onbekend,https://www.resortwaterweelde.nl/,,Onbekend,https://images.unsplash.com/photo-1523987355523-c7b5b0dd90a7?auto=format&fit=crop&w=300&q=80
A-Hoeve,53.2614485,6.7414699,Groningen,Onbekend,Nee,Nee,Onbekend,Onbekend,http://www.a-hoeve.nl/,+31 50 302 5142,Onbekend,https://images.unsplash.com/photo-1523987355523-c7b5b0dd90a7?auto=format&fit=crop&w=300&q=80
Koekoek en de waard,53.0121012,5.6250028,Friesland,Onbekend,Nee,Nee,Onbekend,Onbekend,https://koekoekendewaard.nl/,,Onbekend,https://images.unsplash.com/photo-1523987355523-c7b5b0dd90a7?auto=format&fit=crop&w=300&q=80
camping Buytenplaets,52.1857676,6.7910112,Overijssel,Onbekend,Nee,Nee,Onbekend,Onbekend,,,Onbekend,https://images.unsplash.com/photo-1523987355523-c7b5b0dd90a7?auto=format&fit=crop&w=300&q=80
Seniorencamping Donkershoeve,51.5682006,5.442506,North Brabant,Onbekend,Nee,Nee,Onbekend,Onbekend,https://www.donkershoeve.nl/,+31 6 13345256,Onbekend,https://images.unsplash.com/photo-1523987355523-c7b5b0dd90a7?auto=format&fit=crop&w=300&q=80
Natuurkampeerterrein De Woldberg,52.8128359,6.1031091,Overijssel,Onbekend,Nee,Nee,Onbekend,Onbekend,,,Onbekend,https://images.unsplash.com/photo-1523987355523-c7b5b0dd90a7?auto=format&fit=crop&w=300&q=80
Naamloze Locatie,51.5307972,6.1293505,Limburg,Onbekend,Nee,Nee,Onbekend,Onbekend,,,Onbekend,https://images.unsplash.com/photo-1523987355523-c7b5b0dd90a7?auto=format&fit=crop&w=300&q=80
Vakantiepark Bonte Vlucht,52.0278968,5.3849494,Utrecht,Onbekend,Nee,Nee,Onbekend,Onbekend,,,Onbekend,https://images.unsplash.com/photo-1523987355523-c7b5b0dd90a7?auto=format&fit=crop&w=300&q=80
Camping 'Slootermeer',51.8994125,6.3543907,Gelderland,Onbekend,Nee,Nee,Onbekend,Onbekend,,,Onbekend,https://images.unsplash.com/photo-1523987355523-c7b5b0dd90a7?auto=format&fit=crop&w=300&q=80
Outdoor Valley,51.9770273,4.5367654,South Holland,Onbekend,Nee,Nee,Onbekend,Onbekend,,,Onbekend,https://images.unsplash.com/photo-1523987355523-c7b5b0dd90a7?auto=format&fit=crop&w=300&q=80
Ponyboerderij camping 's Gravenhof,51.8566604,6.3110801,Gelderland,Onbekend,Nee,Nee,Onbekend,Onbekend,,,Onbekend,https://images.unsplash.com/photo-1523987355523-c7b5b0dd90a7?auto=format&fit=crop&w=300&q=80
Camping Eijckelenburg,52.0735581,5.3896768,Utrecht,Onbekend,Nee,Nee,Onbekend,Onbekend,https://campingeijckelenburg.nl,,Onbekend,https://images.unsplash.com/photo-1523987355523-c7b5b0dd90a7?auto=format&fit=crop&w=300&q=80
Mini-camping Oes Stekkie,52.7076217,6.1502461,Overijssel,Onbekend,Nee,Nee,Onbekend,Onbekend,https://www.oesstekkie.nl/,+31 522 281 671,Onbekend,https://images.unsplash.com/photo-1523987355523-c7b5b0dd90a7?auto=format&fit=crop&w=300&q=80
Camping De Koaipleats,53.0464037,5.7842526,Friesland,Onbekend,Nee,Nee,Onbekend,Onbekend,https://www.de-koaipleats.nl,+31 566 689 218,Onbekend,https://images.unsplash.com/photo-1523987355523-c7b5b0dd90a7?auto=format&fit=crop&w=300&q=80
D'n Mastendol,51.5820104,4.9041668,North Brabant,Onbekend,Nee,Nee,Onbekend,Onbekend,https://www.mastendol.nl,,Onbekend,https://images.unsplash.com/photo-1523987355523-c7b5b0dd90a7?auto=format&fit=crop&w=300&q=80
De Couwenberg,51.4141401,5.1999502,North Brabant,Onbekend,Nee,Nee,Onbekend,Onbekend,https://www.decouwenberg.nl/,+31 497 682 233,Onbekend,https://images.unsplash.com/photo-1523987355523-c7b5b0dd90a7?auto=format&fit=crop&w=300&q=80
Camping Mooi Delden,52.2535932,6.7271327,Overijssel,Onbekend,Nee,Nee,Onbekend,Onbekend,https://www.mooidelden.nl/,,Onbekend,https://images.unsplash.com/photo-1523987355523-c7b5b0dd90a7?auto=format&fit=crop&w=300&q=80
Campercamping Borgerswold,53.1060376,6.8511312,Groningen,Onbekend,Ja,Ja,Onbekend,Betaald,https://borgerswoldhoeve.nl/camperplaatsen,,Onbekend,https://images.unsplash.com/photo-1523987355523-c7b5b0dd90a7?auto=format&fit=crop&w=300&q=80
Break Out Grunopark,53.2128311,6.6633385,Groningen,Onbekend,Nee,Nee,Onbekend,Onbekend,,,Onbekend,https://images.unsplash.com/photo-1523987355523-c7b5b0dd90a7?auto=format&fit=crop&w=300&q=80
De Kastanjes,51.5704603,5.7454088,North Brabant,Onbekend,Nee,Nee,Onbekend,Onbekend,https://www.dekastanjes.nl,+31 492 319 403,Onbekend,https://images.unsplash.com/photo-1523987355523-c7b5b0dd90a7?auto=format&fit=crop&w=300&q=80
't Ol Gat,53.3431857,6.3058396,Groningen,Onbekend,Nee,Nee,Onbekend,Onbekend,https://www.kanocamping.nl/,,Onbekend,https://images.unsplash.com/photo-1523987355523-c7b5b0dd90a7?auto=format&fit=crop&w=300&q=80
Mini-camping De Watergeuzen,53.3567305,6.3307481,Groningen,Onbekend,Nee,Nee,Onbekend,Onbekend,,+31 595 402 081,Onbekend,https://images.unsplash.com/photo-1523987355523-c7b5b0dd90a7?auto=format&fit=crop&w=300&q=80
Somerense Vennen,51.4009364,5.673339,North Brabant,Onbekend,Nee,Nee,Onbekend,Onbekend,,,Onbekend,https://images.unsplash.com/photo-1523987355523-c7b5b0dd90a7?auto=format&fit=crop&w=300&q=80
't Bullekroffie,52.8287245,4.7906776,North Holland,Onbekend,Nee,Nee,Onbekend,Onbekend,https://www.bullekroffie.nl,,Onbekend,https://images.unsplash.com/photo-1523987355523-c7b5b0dd90a7?auto=format&fit=crop&w=300&q=80
Onder de panne,52.1661788,4.9492728,Utrecht,Onbekend,Nee,Nee,Onbekend,Onbekend,https://www.campingvdpanne.nl,,Onbekend,https://images.unsplash.com/photo-1523987355523-c7b5b0dd90a7?auto=format&fit=crop&w=300&q=80
De Berkebomen,52.3131294,5.5727783,Gelderland,Onbekend,Nee,Nee,Onbekend,Onbekend,https://www.deberkebomen.nl/,,Onbekend,https://images.unsplash.com/photo-1523987355523-c7b5b0dd90a7?auto=format&fit=crop&w=300&q=80
Landgoed Vilsteren,52.5077856,6.3602835,Overijssel,Onbekend,Nee,Nee,Onbekend,Onbekend,https://www.natuurkampeerterreinen.nl/nl/terreinen/overijssel/landgoed-vilsteren.html,,Onbekend,https://images.unsplash.com/photo-1523987355523-c7b5b0dd90a7?auto=format&fit=crop&w=300&q=80
Camping Venema,52.9069239,5.461288,Friesland,Onbekend,Nee,Nee,Onbekend,Onbekend,https://campingvenema.nl,+31 514 521 354,Onbekend,https://images.unsplash.com/photo-1523987355523-c7b5b0dd90a7?auto=format&fit=crop&w=300&q=80
Minicamping Heechhiem,52.853786,5.5200678,Friesland,Onbekend,Nee,Nee,Onbekend,Onbekend,,+31 514 571 370,Onbekend,https://images.unsplash.com/photo-1523987355523-c7b5b0dd90a7?auto=format&fit=crop&w=300&q=80
Naamloze Locatie,51.8120703,5.658965,Gelderland,Onbekend,Nee,Nee,Onbekend,Onbekend,,,Onbekend,https://images.unsplash.com/photo-1523987355523-c7b5b0dd90a7?auto=format&fit=crop&w=300&q=80
boerderijcamping 't Slag,52.542286,6.3014711,Overijssel,Onbekend,Nee,Nee,Onbekend,Onbekend,https://www.campingtslag.nl,+31 529 471 205,Onbekend,https://images.unsplash.com/photo-1523987355523-c7b5b0dd90a7?auto=format&fit=crop&w=300&q=80
Erve Beernink,52.2506743,7.0288111,Overijssel,Onbekend,Nee,Nee,Onbekend,Betaald,https://www.ervebeernink.nl/,+31 53 538 1566,Onbekend,https://images.unsplash.com/photo-1523987355523-c7b5b0dd90a7?auto=format&fit=crop&w=300&q=80
Overbos,52.1941613,5.4405912,Gelderland,Onbekend,Nee,Nee,Onbekend,Onbekend,https://www.overbos-recreatiepark.nl/,,Onbekend,https://images.unsplash.com/photo-1523987355523-c7b5b0dd90a7?auto=format&fit=crop&w=300&q=80
Kampeerboerderij de Zandkamp,52.2934016,5.5920731,Gelderland,Onbekend,Nee,Nee,Onbekend,Onbekend,http://dezandkamp.com/,,Onbekend,https://images.unsplash.com/photo-1523987355523-c7b5b0dd90a7?auto=format&fit=crop&w=300&q=80
Scheepstra,53.157299,6.460027,Groningen,Onbekend,Nee,Nee,Onbekend,Onbekend,,+31 50 503 2192,Onbekend,https://images.unsplash.com/photo-1523987355523-c7b5b0dd90a7?auto=format&fit=crop&w=300&q=80
Camping de Zoete Aagt,51.751799,5.9465465,Gelderland,Onbekend,Nee,Nee,Onbekend,Betaald,https://www.dezoeteaagt.nl/,+31 6 40606415,Onbekend,https://images.unsplash.com/photo-1523987355523-c7b5b0dd90a7?auto=format&fit=crop&w=300&q=80
Camperplaats Kampen,52.5528089,5.9130778,Overijssel,Onbekend,Nee,Nee,25,13.75 EUR,https://visitkampen.nl/locaties/camperplaats-kampen,,Onbekend,https://images.unsplash.com/photo-1523987355523-c7b5b0dd90a7?auto=format&fit=crop&w=300&q=80
Camping Groede,52.7301458,4.6672746,North Holland,Onbekend,Nee,Nee,Onbekend,Onbekend,https://www.camping-groede.nl/index.html,+31 72 509 1555,Onbekend,https://images.unsplash.com/photo-1523987355523-c7b5b0dd90a7?auto=format&fit=crop&w=300&q=80
Graauw,51.3252845,4.1041823,Zeeland,Onbekend,Nee,Nee,1,Gratis,,,Onbekend,https://images.unsplash.com/photo-1523987355523-c7b5b0dd90a7?auto=format&fit=crop&w=300&q=80
De Kleine Wielen,53.2156878,5.8906351,Friesland,Onbekend,Nee,Nee,Onbekend,Onbekend,https://www.campingdekleinewielen.nl/,,Onbekend,https://images.unsplash.com/photo-1523987355523-c7b5b0dd90a7?auto=format&fit=crop&w=300&q=80
Bolhaven,52.3342753,5.5520874,Flevoland,Onbekend,Nee,Nee,Onbekend,Onbekend,https://www.jachthaven-wolderwijd.nl/camping-aan-het-water,,Onbekend,https://images.unsplash.com/photo-1523987355523-c7b5b0dd90a7?auto=format&fit=crop&w=300&q=80
Bolhaven,52.3343048,5.5517278,Flevoland,Onbekend,Ja,Nee,Onbekend,16 EUR,https://www.jachthaven-wolderwijd.nl/camperplaats-aan-het-water/,,Onbekend,https://images.unsplash.com/photo-1523987355523-c7b5b0dd90a7?auto=format&fit=crop&w=300&q=80
De Agnietenberg,52.5369212,6.1297517,Overijssel,Onbekend,Ja,Nee,Onbekend,Onbekend,https://www.campingagnietenberg.nl,+31 38 453 1530,Onbekend,https://images.unsplash.com/photo-1523987355523-c7b5b0dd90a7?auto=format&fit=crop&w=300&q=80
De Eikenhof,52.8154415,5.9970994,Overijssel,Onbekend,Ja,Nee,Onbekend,Onbekend,https://www.eikenhof.nl/,,Onbekend,https://images.unsplash.com/photo-1523987355523-c7b5b0dd90a7?auto=format&fit=crop&w=300&q=80
Camping Krolsbergen,52.8157696,6.0065412,Overijssel,Onbekend,Nee,Nee,Onbekend,Onbekend,https://www.campingkrolsbergen.nl/,,Onbekend,https://images.unsplash.com/photo-1523987355523-c7b5b0dd90a7?auto=format&fit=crop&w=300&q=80
An 't Kanaal,51.5823063,5.8394505,North Brabant,Onbekend,Nee,Nee,Onbekend,Onbekend,https://www.antknaal.nl,,Onbekend,https://images.unsplash.com/photo-1523987355523-c7b5b0dd90a7?auto=format&fit=crop&w=300&q=80
minicamping Aan den Esch,52.8418099,6.6034415,Drenthe,Onbekend,Nee,Nee,Onbekend,Onbekend,,,Onbekend,https://images.unsplash.com/photo-1523987355523-c7b5b0dd90a7?auto=format&fit=crop&w=300&q=80
de Bosrand,52.0962984,5.7741937,Gelderland,Onbekend,Nee,Nee,Onbekend,Onbekend,https://minicampingdebosrand.nl,,Onbekend,https://images.unsplash.com/photo-1523987355523-c7b5b0dd90a7?auto=format&fit=crop&w=300&q=80
de Lindehof,52.107029,5.7781159,Gelderland,Onbekend,Nee,Nee,Onbekend,Onbekend,https://www.landgoedlindehof.nl,,Onbekend,https://images.unsplash.com/photo-1523987355523-c7b5b0dd90a7?auto=format&fit=crop&w=300&q=80
De Hooiberg,51.3532775,5.2240955,North Brabant,Onbekend,Nee,Nee,Onbekend,Onbekend,https://www.hooibergcamping.nl,+31 6 54341822,Onbekend,https://images.unsplash.com/photo-1523987355523-c7b5b0dd90a7?auto=format&fit=crop&w=300&q=80
De Ganzenhof,51.3859503,5.2306004,North Brabant,Onbekend,Nee,Nee,Onbekend,Onbekend,https://www.ganzenhof.nl,+31 497 382 277,Onbekend,https://images.unsplash.com/photo-1523987355523-c7b5b0dd90a7?auto=format&fit=crop&w=300&q=80
De Karpermolen,51.3615424,5.2294361,North Brabant,Onbekend,Nee,Nee,Onbekend,Onbekend,https://www.dekarpermolen.nl,+31 497 381 985,Onbekend,https://images.unsplash.com/photo-1523987355523-c7b5b0dd90a7?auto=format&fit=crop&w=300&q=80
Veerhof,52.7280439,5.0964301,North Holland,Onbekend,Nee,Nee,Onbekend,Onbekend,https://www.natuurkampeerterreinen.nl/terreinen/noord-holland/veerhof/,+31 229 201 575,Onbekend,https://images.unsplash.com/photo-1523987355523-c7b5b0dd90a7?auto=format&fit=crop&w=300&q=80
Fort Spion,52.2010252,5.0431997,Utrecht,Onbekend,Nee,Nee,Onbekend,Onbekend,https://fortspion.nl,,Onbekend,https://images.unsplash.com/photo-1523987355523-c7b5b0dd90a7?auto=format&fit=crop&w=300&q=80
De Kleine Rug,51.8086891,4.7210139,South Holland,Onbekend,Ja,Nee,Onbekend,Onbekend,https://www.dekleinerug.nl/accommodatie.html,+31 88 099 0962,Apr 01-Oct 15,https://images.unsplash.com/photo-1523987355523-c7b5b0dd90a7?auto=format&fit=crop&w=300&q=80
Eco-touristfarm De Biezen,51.526521,5.6801577,North Brabant,Onbekend,Ja,Nee,25,Betaald,http://www.eco-touristfarm.com,+31 6 54324517,Onbekend,https://images.unsplash.com/photo-1523987355523-c7b5b0dd90a7?auto=format&fit=crop&w=300&q=80
De Duiventoren,51.6113681,4.8989685,North Brabant,Onbekend,Nee,Nee,Onbekend,Onbekend,https://www.natuurkampeerterreinen.nl/terreinen/noord-brabant/de-duiventoren/,,Onbekend,https://images.unsplash.com/photo-1523987355523-c7b5b0dd90a7?auto=format&fit=crop&w=300&q=80
Natuurkampeerterrein Landgoed Geijsteren,51.5597971,6.0431795,Limburg,Onbekend,Ja,Nee,Onbekend,Onbekend,https://www.natuurkampeerterreinen.nl/terreinen/limburg/landgoed-geijsteren/,,Onbekend,https://images.unsplash.com/photo-1523987355523-c7b5b0dd90a7?auto=format&fit=crop&w=300&q=80
Natuurkampeerterrein Het Zand,52.0345613,6.3875622,Gelderland,Onbekend,Nee,Nee,Onbekend,Onbekend,https://www.natuurkampeerterreinen.nl/terreinen/gelderland/landgoed-het-zand-hattemer-oldenburger/,,Onbekend,https://images.unsplash.com/photo-1523987355523-c7b5b0dd90a7?auto=format&fit=crop&w=300&q=80
Natuurkampeerterrein Den Oude Dam,51.9364655,5.5463519,Gelderland,Onbekend,Nee,Nee,Onbekend,Onbekend,https://www.natuurkampeerterreinen.nl/terreinen/gelderland/den-ouden-dam/,,Onbekend,https://images.unsplash.com/photo-1523987355523-c7b5b0dd90a7?auto=format&fit=crop&w=300&q=80
De Karekiet,51.8966319,5.3219132,Gelderland,Onbekend,Ja,Nee,Onbekend,Onbekend,https://www.dekarekiet.com,,Onbekend,https://images.unsplash.com/photo-1523987355523-c7b5b0dd90a7?auto=format&fit=crop&w=300&q=80
Camping De Maaneschijn,52.1883413,5.539828,Gelderland,Onbekend,Nee,Nee,Onbekend,Onbekend,https://www.demaaneschijn.nl,,Onbekend,https://images.unsplash.com/photo-1523987355523-c7b5b0dd90a7?auto=format&fit=crop&w=300&q=80
De Zwaluw,52.8954572,4.7185189,North Holland,Onbekend,Ja,Nee,Onbekend,Onbekend,https://campingdezwaluw.nl,+31 223 865 030,Onbekend,https://images.unsplash.com/photo-1523987355523-c7b5b0dd90a7?auto=format&fit=crop&w=300&q=80
Camping Oase,52.899253,4.7187508,North Holland,Onbekend,Ja,Nee,Onbekend,Onbekend,https://www.strandcampingoase.nl,+31 223 641 373,Onbekend,https://images.unsplash.com/photo-1523987355523-c7b5b0dd90a7?auto=format&fit=crop&w=300&q=80
Arbeid Adelt,51.5491557,5.2326179,North Brabant,Onbekend,Nee,Nee,Onbekend,Onbekend,https://www.hoevearbeidadelt.nl/,+31 13 521 7141,Onbekend,https://images.unsplash.com/photo-1523987355523-c7b5b0dd90a7?auto=format&fit=crop&w=300&q=80
De Veldhoek,52.0482528,6.4141197,Gelderland,Onbekend,Nee,Nee,Onbekend,Onbekend,,,Onbekend,https://images.unsplash.com/photo-1523987355523-c7b5b0dd90a7?auto=format&fit=crop&w=300&q=80
Camping de Goede Hoop,52.0534791,6.6747734,Gelderland,Onbekend,Nee,Nee,Onbekend,Onbekend,https://www.degoedehoop.nl/,,Onbekend,https://images.unsplash.com/photo-1523987355523-c7b5b0dd90a7?auto=format&fit=crop&w=300&q=80
Camping het Bosbad,52.719199,5.7547935,Flevoland,Onbekend,Nee,Nee,Onbekend,Onbekend,,,Onbekend,https://images.unsplash.com/photo-1523987355523-c7b5b0dd90a7?auto=format&fit=crop&w=300&q=80
Camping Landgoed Den Heuvel,51.7959486,5.9570807,Gelderland,Onbekend,Nee,Nee,Onbekend,Onbekend,https://www.camping-landgoeddenheuvel.nl,+31 24 397 1828,Onbekend,https://images.unsplash.com/photo-1523987355523-c7b5b0dd90a7?auto=format&fit=crop&w=300&q=80
Kaasboerderij Simonehoeve,52.4876229,5.0348072,North Holland,Onbekend,Nee,Nee,Onbekend,Gratis,https://simonehoeve.com/nl/camperplaatsen/,+31 299365828,Mo-Su 17:00-09:30,https://images.unsplash.com/photo-1523987355523-c7b5b0dd90a7?auto=format&fit=crop&w=300&q=80
Rakelbos,51.4479226,5.2090033,North Brabant,Onbekend,Nee,Nee,Onbekend,Onbekend,,,Onbekend,https://images.unsplash.com/photo-1523987355523-c7b5b0dd90a7?auto=format&fit=crop&w=300&q=80
De Tolbrug,51.8439493,5.6711309,Gelderland,Onbekend,Nee,Nee,Onbekend,Onbekend,,,Onbekend,https://images.unsplash.com/photo-1523987355523-c7b5b0dd90a7?auto=format&fit=crop&w=300&q=80
Mini camping Het Hoegen,52.020198,6.3027375,Gelderland,Onbekend,Nee,Nee,Onbekend,Onbekend,,,Onbekend,https://images.unsplash.com/photo-1523987355523-c7b5b0dd90a7?auto=format&fit=crop&w=300&q=80
Minicamping De Brinkhoeve,53.2501069,5.6212986,Friesland,Onbekend,Nee,Nee,Onbekend,Onbekend,https://www.debrinkhoeve.com,,Onbekend,https://images.unsplash.com/photo-1523987355523-c7b5b0dd90a7?auto=format&fit=crop&w=300&q=80
Mini camping Haarman,52.1938249,6.3818377,Gelderland,Onbekend,Nee,Nee,Onbekend,Onbekend,https://www.demeidenvanhaarman.nl/camping/,,Onbekend,https://images.unsplash.com/photo-1523987355523-c7b5b0dd90a7?auto=format&fit=crop&w=300&q=80
Groot-Zande,51.9891472,6.247061,Gelderland,Onbekend,Nee,Nee,Onbekend,Onbekend,,,Onbekend,https://images.unsplash.com/photo-1523987355523-c7b5b0dd90a7?auto=format&fit=crop&w=300&q=80
NTKC Het Groene Hart,52.089225,4.6151383,South Holland,Onbekend,Ja,Nee,Onbekend,Onbekend,https://www.kampeerclub.nl/terrein/kampeerterrein-het-groene-hart,,Onbekend,https://images.unsplash.com/photo-1523987355523-c7b5b0dd90a7?auto=format&fit=crop&w=300&q=80
Camping 'De Wanepe',52.6729614,6.0565623,Overijssel,Onbekend,Nee,Nee,Onbekend,Onbekend,,,Onbekend,https://images.unsplash.com/photo-1523987355523-c7b5b0dd90a7?auto=format&fit=crop&w=300&q=80
Appartementenverhuur en Camping 'De Polle',52.6691331,6.0564582,Overijssel,Onbekend,Nee,Nee,Onbekend,Onbekend,,,Onbekend,https://images.unsplash.com/photo-1523987355523-c7b5b0dd90a7?auto=format&fit=crop&w=300&q=80
Camping 'De Wieden',52.6686458,6.0557929,Overijssel,Onbekend,Nee,Nee,Onbekend,Onbekend,,,Onbekend,https://images.unsplash.com/photo-1523987355523-c7b5b0dd90a7?auto=format&fit=crop&w=300&q=80
De ReCreatie,52.1138319,5.3653341,Utrecht,Onbekend,Nee,Nee,Onbekend,Onbekend,https://www.derecreatie.nl/,+31 33 303 7980,Onbekend,https://images.unsplash.com/photo-1523987355523-c7b5b0dd90a7?auto=format&fit=crop&w=300&q=80
De Veentjes,52.6501067,6.3130737,Overijssel,Onbekend,Nee,Nee,18,Onbekend,http://campingdeveentjes.nl/kamperen/,,Onbekend,https://images.unsplash.com/photo-1523987355523-c7b5b0dd90a7?auto=format&fit=crop&w=300&q=80
Camping de Bankenburg,52.4079187,6.0615172,Gelderland,Onbekend,Nee,Nee,Onbekend,Onbekend,https://debankenburg.nl,,Onbekend,https://images.unsplash.com/photo-1523987355523-c7b5b0dd90a7?auto=format&fit=crop&w=300&q=80
UrbanCamperSpot Haarlem,52.3886721,4.6145518,North Holland,Onbekend,Ja,Nee,Onbekend,Onbekend,,,Onbekend,https://images.unsplash.com/photo-1523987355523-c7b5b0dd90a7?auto=format&fit=crop&w=300&q=80
Natuurkampeerterrein De Veenkuil,52.7883173,5.798521,Friesland,Ja,Nee,Nee,Onbekend,Betaald,https://www.logerenbijdeboswachter.nl/kamperen/de-veenkuil,,Onbekend,https://images.unsplash.com/photo-1523987355523-c7b5b0dd90a7?auto=format&fit=crop&w=300&q=80
“Onder” de Heerenbrug,52.7715203,6.0853952,Overijssel,Onbekend,Nee,Nee,Onbekend,Onbekend,,,Onbekend,https://images.unsplash.com/photo-1523987355523-c7b5b0dd90a7?auto=format&fit=crop&w=300&q=80
Camping de Blauwe Hand,52.6943597,6.0760111,Overijssel,Onbekend,Nee,Nee,Onbekend,Onbekend,,,Onbekend,https://images.unsplash.com/photo-1523987355523-c7b5b0dd90a7?auto=format&fit=crop&w=300&q=80
Jacobus Hoeve,52.1936106,5.67825,Gelderland,Ja,Ja,Nee,Onbekend,Betaald,https://www.jacobus-hoeve.nl/,+31 342 441 319,Onbekend,https://images.unsplash.com/photo-1523987355523-c7b5b0dd90a7?auto=format&fit=crop&w=300&q=80
Hof van Overveld Minicamping-Maisdoolhof,51.6079656,4.6946727,North Brabant,Onbekend,Nee,Nee,Onbekend,Onbekend,https://hofvanoverveld.nl,+31 76 541 3519,Onbekend,https://images.unsplash.com/photo-1523987355523-c7b5b0dd90a7?auto=format&fit=crop&w=300&q=80
Roosdunen,53.4514214,5.6885586,Friesland,Onbekend,Ja,Nee,Onbekend,Betaald,https://www.roosdunen.nl/,+31 519 554 134,Onbekend,https://images.unsplash.com/photo-1523987355523-c7b5b0dd90a7?auto=format&fit=crop&w=300&q=80
Kampeerboerderij de Zwaluw,51.4970876,5.9014218,Limburg,Onbekend,Nee,Nee,Onbekend,Onbekend,,+31 478 541 392,Onbekend,https://images.unsplash.com/photo-1523987355523-c7b5b0dd90a7?auto=format&fit=crop&w=300&q=80
Klein Emelaar,52.2335742,5.768778,Gelderland,Onbekend,Nee,Nee,Onbekend,Onbekend,https://www.kleinemelaar.nl/,+31 577 456 818,Onbekend,https://images.unsplash.com/photo-1523987355523-c7b5b0dd90a7?auto=format&fit=crop&w=300&q=80
Scoutingkampeerterrein De Vrijenberg,52.1295269,6.0068826,Gelderland,Onbekend,Nee,Nee,Onbekend,Onbekend,,,Onbekend,https://images.unsplash.com/photo-1523987355523-c7b5b0dd90a7?auto=format&fit=crop&w=300&q=80
Huttopia De Roos,52.5107239,6.5152622,Overijssel,Onbekend,Nee,Nee,Onbekend,Betaald,https://www.campingderoos.nl/,,Onbekend,https://images.unsplash.com/photo-1523987355523-c7b5b0dd90a7?auto=format&fit=crop&w=300&q=80
Camping Zandman,52.5140132,6.5432095,Overijssel,Onbekend,Nee,Nee,Onbekend,Onbekend,https://www.zandmanbeerze.nl/,+31 523 252 151,Onbekend,https://images.unsplash.com/photo-1523987355523-c7b5b0dd90a7?auto=format&fit=crop&w=300&q=80
Minicamping Nessst,51.989102,6.3150654,Gelderland,Onbekend,Nee,Nee,Onbekend,Onbekend,,,Onbekend,https://images.unsplash.com/photo-1523987355523-c7b5b0dd90a7?auto=format&fit=crop&w=300&q=80
Boerderijwinkel & Minicamping 'Het groene erf',51.7335598,5.4019524,North Brabant,Onbekend,Nee,Nee,Onbekend,Onbekend,https://www.het-groene-erf.nl/,,Onbekend,https://images.unsplash.com/photo-1523987355523-c7b5b0dd90a7?auto=format&fit=crop&w=300&q=80
De Buiten Bij,51.5080041,4.7137134,North Brabant,Onbekend,Nee,Nee,Onbekend,Onbekend,,,Onbekend,https://images.unsplash.com/photo-1523987355523-c7b5b0dd90a7?auto=format&fit=crop&w=300&q=80
Noordijkerveld,52.1629648,6.5900069,Gelderland,Onbekend,Nee,Nee,Onbekend,Onbekend,https://vakantieparknoordijkerveld.nl,+31 6 55154656,Onbekend,https://images.unsplash.com/photo-1523987355523-c7b5b0dd90a7?auto=format&fit=crop&w=300&q=80
Camping Den Blanken,52.1806908,6.587007,Overijssel,Onbekend,Nee,Nee,Onbekend,Onbekend,https://www.campingdenblanken.nl/,+31 547 351 353,Onbekend,https://images.unsplash.com/photo-1523987355523-c7b5b0dd90a7?auto=format&fit=crop&w=300&q=80
Camping Veldzicht,52.1109727,6.5906236,Gelderland,Onbekend,Nee,Nee,Onbekend,Onbekend,https://www.campingveldzicht.nl/,,Onbekend,https://images.unsplash.com/photo-1523987355523-c7b5b0dd90a7?auto=format&fit=crop&w=300&q=80
Camping 't Kolhornerdiep,52.7932326,4.9087276,North Holland,Onbekend,Nee,Nee,Onbekend,Onbekend,,,Onbekend,https://images.unsplash.com/photo-1523987355523-c7b5b0dd90a7?auto=format&fit=crop&w=300&q=80
Camping De Meibeek,52.0682725,6.5023555,Gelderland,Onbekend,Nee,Nee,Onbekend,Onbekend,https://campingdemeibeek.nl,,Onbekend,https://images.unsplash.com/photo-1523987355523-c7b5b0dd90a7?auto=format&fit=crop&w=300&q=80
Camping de Kwaalburg,51.4761391,4.9392265,North Brabant,Onbekend,Nee,Nee,Onbekend,Onbekend,https://www.kwaalburg.nl/,,Onbekend,https://images.unsplash.com/photo-1523987355523-c7b5b0dd90a7?auto=format&fit=crop&w=300&q=80
Recreatiepark 't Zand,51.4931379,4.9503917,North Brabant,Onbekend,Nee,Nee,Onbekend,Onbekend,https://www.tzand.nl/,,Onbekend,https://images.unsplash.com/photo-1523987355523-c7b5b0dd90a7?auto=format&fit=crop&w=300&q=80
Jeugd Kampeerterrein,52.0894204,5.6530684,Gelderland,Onbekend,Nee,Nee,Onbekend,Onbekend,,,Onbekend,https://images.unsplash.com/photo-1523987355523-c7b5b0dd90a7?auto=format&fit=crop&w=300&q=80
NTKC Het Essenbos,51.8176709,3.9441429,South Holland,Onbekend,Ja,Nee,Onbekend,Onbekend,https://www.kampeerclub.nl/terrein/kampeerterrein-het-essenbos,,Onbekend,https://images.unsplash.com/photo-1523987355523-c7b5b0dd90a7?auto=format&fit=crop&w=300&q=80
Camping Nijveld,52.2030268,6.3567011,Gelderland,Onbekend,Nee,Nee,Onbekend,Onbekend,https://www.campingnijveld.nl/home,+31 6 27554790,Onbekend,https://images.unsplash.com/photo-1523987355523-c7b5b0dd90a7?auto=format&fit=crop&w=300&q=80
Gelders Laren,52.2084959,6.3763345,Gelderland,Onbekend,Nee,Nee,Onbekend,Onbekend,https://campinggelderslaren.nl/,+31 573 402 962,Onbekend,https://images.unsplash.com/photo-1523987355523-c7b5b0dd90a7?auto=format&fit=crop&w=300&q=80
Boerderij Camping Hietkamp,52.200065,6.3749584,Gelderland,Onbekend,Nee,Nee,Onbekend,Onbekend,http://www.campinghietkamp.nl/,+31 573 402 363,Onbekend,https://images.unsplash.com/photo-1523987355523-c7b5b0dd90a7?auto=format&fit=crop&w=300&q=80
Motorcamping bij het Vuur,52.0143981,6.5127476,Gelderland,Onbekend,Nee,Nee,Onbekend,Onbekend,http://motorcampingbijhetvuur.nl,,Onbekend,https://images.unsplash.com/photo-1523987355523-c7b5b0dd90a7?auto=format&fit=crop&w=300&q=80
Beusink Recreatie,52.006811,6.5902231,Gelderland,Onbekend,Nee,Nee,Onbekend,Onbekend,https://www.beusink.nl,,Onbekend,https://images.unsplash.com/photo-1523987355523-c7b5b0dd90a7?auto=format&fit=crop&w=300&q=80
De Leeghte minicamping,52.0288621,6.5850325,Gelderland,Onbekend,Nee,Nee,Onbekend,Onbekend,https://www.deleeghte.nl/de-camping/,,Onbekend,https://images.unsplash.com/photo-1523987355523-c7b5b0dd90a7?auto=format&fit=crop&w=300&q=80
De Kool,51.960541,6.4851812,Gelderland,Onbekend,Nee,Nee,Onbekend,Onbekend,,,Onbekend,https://images.unsplash.com/photo-1523987355523-c7b5b0dd90a7?auto=format&fit=crop&w=300&q=80
Caravan en Chaletverhuur Schittrum Eldorado,53.3741149,5.2456565,Friesland,Onbekend,Nee,Nee,Onbekend,Onbekend,,,Onbekend,https://images.unsplash.com/photo-1523987355523-c7b5b0dd90a7?auto=format&fit=crop&w=300&q=80
R. en P. Schroo,53.3747034,5.2445765,Friesland,Onbekend,Nee,Nee,Onbekend,Onbekend,,,Onbekend,https://images.unsplash.com/photo-1523987355523-c7b5b0dd90a7?auto=format&fit=crop&w=300&q=80
Duinland Kampeerterrein,53.3765033,5.2695251,Friesland,Onbekend,Nee,Nee,Onbekend,Onbekend,https://www.duinland.nl/ruim-vakantiehuis-terschelling,,Onbekend,https://images.unsplash.com/photo-1523987355523-c7b5b0dd90a7?auto=format&fit=crop&w=300&q=80
Recreatiepark Noordkaap,53.3929067,5.2857476,Friesland,Onbekend,Nee,Nee,Onbekend,Onbekend,https://noordkaapverhuur.nl,,Onbekend,https://images.unsplash.com/photo-1523987355523-c7b5b0dd90a7?auto=format&fit=crop&w=300&q=80
Camping & Appartementen De Duinkant Terschelling,53.4054649,5.3844332,Friesland,Onbekend,Nee,Nee,Onbekend,Onbekend,https://www.campingdeduinkant.nl/,+31 562 448 917,Onbekend,https://images.unsplash.com/photo-1523987355523-c7b5b0dd90a7?auto=format&fit=crop&w=300&q=80
De Loeks,52.1783759,6.8658327,Overijssel,Onbekend,Nee,Nee,Onbekend,Onbekend,,,Onbekend,https://images.unsplash.com/photo-1523987355523-c7b5b0dd90a7?auto=format&fit=crop&w=300&q=80
Camping Campschroer,51.9054669,6.1374531,Gelderland,Onbekend,Nee,Nee,Onbekend,Onbekend,,,Onbekend,https://images.unsplash.com/photo-1523987355523-c7b5b0dd90a7?auto=format&fit=crop&w=300&q=80
Rivo Torto,51.9051958,6.1291653,Gelderland,Onbekend,Nee,Nee,Onbekend,Onbekend,https://www.rivotorto.nl,,Onbekend,https://images.unsplash.com/photo-1523987355523-c7b5b0dd90a7?auto=format&fit=crop&w=300&q=80
Scouting Kampeerterrein Belmont,52.0760464,5.6494729,Gelderland,Onbekend,Nee,Nee,Onbekend,Onbekend,https://www.5050-belmont.nl/scoutingkamp,,Onbekend,https://images.unsplash.com/photo-1523987355523-c7b5b0dd90a7?auto=format&fit=crop&w=300&q=80
Ardoer Camping De Meulinge,51.3744003,3.4696218,Zeeland,Onbekend,Nee,Nee,Onbekend,Onbekend,https://www.ardoer.com/meulinge,,Onbekend,https://images.unsplash.com/photo-1523987355523-c7b5b0dd90a7?auto=format&fit=crop&w=300&q=80
Zuidvelde,52.2998185,6.1208932,Overijssel,Onbekend,Nee,Nee,Onbekend,Onbekend,https://www.zuidvelde.com/,,Onbekend,https://images.unsplash.com/photo-1523987355523-c7b5b0dd90a7?auto=format&fit=crop&w=300&q=80
Camping High Chaparral,50.9537329,5.9147329,Limburg,Onbekend,Nee,Nee,Onbekend,Onbekend,,,Onbekend,https://images.unsplash.com/photo-1523987355523-c7b5b0dd90a7?auto=format&fit=crop&w=300&q=80
Camping Stepelerven,52.1882305,6.7604404,Overijssel,Onbekend,Nee,Nee,140,Onbekend,http://stepelerven.nl/,+31 6 10110777,Onbekend,https://images.unsplash.com/photo-1523987355523-c7b5b0dd90a7?auto=format&fit=crop&w=300&q=80
De Fruitgaard,53.2132873,6.9255449,Groningen,Onbekend,Nee,Nee,Onbekend,Onbekend,http://www.fruitgaard.nl/,,Onbekend,https://images.unsplash.com/photo-1523987355523-c7b5b0dd90a7?auto=format&fit=crop&w=300&q=80
De Drenthse Roos,52.6732265,6.3480494,Drenthe,Onbekend,Nee,Nee,Onbekend,Onbekend,https://www.dedrenthseroos.nl,+31 528 391 933,Onbekend,https://images.unsplash.com/photo-1523987355523-c7b5b0dd90a7?auto=format&fit=crop&w=300&q=80
De Zilvermeeuw,53.0767505,4.7491133,North Holland,Onbekend,Nee,Nee,Onbekend,Onbekend,https://www.dezilvermeeuw.nl/,,Onbekend,https://images.unsplash.com/photo-1523987355523-c7b5b0dd90a7?auto=format&fit=crop&w=300&q=80
Minicamping Poortbulten,52.3034243,6.993859,Overijssel,Onbekend,Nee,Nee,25,Onbekend,https://minicampingpoortbulten.nl/,+31 541 296 000,Oct-Apr closed,https://images.unsplash.com/photo-1523987355523-c7b5b0dd90a7?auto=format&fit=crop&w=300&q=80
De Bergboer,52.3059108,7.0320075,Overijssel,Onbekend,Nee,Nee,Onbekend,Onbekend,,,Onbekend,https://images.unsplash.com/photo-1523987355523-c7b5b0dd90a7?auto=format&fit=crop&w=300&q=80
NTKC De Slufter,53.1560466,4.8435642,North Holland,Onbekend,Ja,Nee,Onbekend,Onbekend,https://www.kampeerclub.nl/terrein/kampeerterrein-de-slufter,,Onbekend,https://images.unsplash.com/photo-1523987355523-c7b5b0dd90a7?auto=format&fit=crop&w=300&q=80
Camping De Kunne,52.3234078,7.0243438,Overijssel,Onbekend,Nee,Nee,Onbekend,Onbekend,https://www.natuurkampeerplaats-dekunne.nl/,+31 541 551 243,Onbekend,https://images.unsplash.com/photo-1523987355523-c7b5b0dd90a7?auto=format&fit=crop&w=300&q=80
Pergama Landjuweel,51.6042901,5.2366453,North Brabant,Onbekend,Nee,Nee,Onbekend,Onbekend,https://pergama.nl/,+31 411 622 724,Onbekend,https://images.unsplash.com/photo-1523987355523-c7b5b0dd90a7?auto=format&fit=crop&w=300&q=80
het Ananas,52.800661,4.7276355,North Holland,Onbekend,Nee,Nee,Onbekend,Onbekend,https://hetananas.nl,,Onbekend,https://images.unsplash.com/photo-1523987355523-c7b5b0dd90a7?auto=format&fit=crop&w=300&q=80
Recreatie Meinsma,53.4019686,6.0820278,Friesland,Onbekend,Nee,Nee,Onbekend,Onbekend,https://www.recreatiebedrijfmeinsma.nl,,Onbekend,https://images.unsplash.com/photo-1523987355523-c7b5b0dd90a7?auto=format&fit=crop&w=300&q=80
Camperplaats Weeskinderendijk,51.8092671,4.6529153,South Holland,Onbekend,Nee,Nee,Onbekend,Gratis,https://indordrecht.nl/locaties/parkeerterrein-weeskinderendijk/,,Onbekend,https://images.unsplash.com/photo-1523987355523-c7b5b0dd90a7?auto=format&fit=crop&w=300&q=80
Mini camping 't Klinkertje,52.8347991,4.7154231,North Holland,Onbekend,Nee,Nee,Onbekend,Betaald,https://www.camping-klinkertje.nl,,Onbekend,https://images.unsplash.com/photo-1523987355523-c7b5b0dd90a7?auto=format&fit=crop&w=300&q=80
Esch Camping Kaampert,52.2482968,6.5122955,Overijssel,Onbekend,Nee,Nee,Onbekend,Betaald,https://eschcampingkaampert.nl/,,Onbekend,https://images.unsplash.com/photo-1523987355523-c7b5b0dd90a7?auto=format&fit=crop&w=300&q=80
De Keite,52.2531529,6.5041392,Overijssel,Onbekend,Nee,Nee,Onbekend,Onbekend,http://www.groenecamping.nl/,+31 547 334 536,Onbekend,https://images.unsplash.com/photo-1523987355523-c7b5b0dd90a7?auto=format&fit=crop&w=300&q=80
De Posthoek,51.5233117,4.5269367,North Brabant,Onbekend,Nee,Nee,25,Betaald,https://www.zonenleven.nl/de-posthoek,+31 6 25457925,Onbekend,https://images.unsplash.com/photo-1523987355523-c7b5b0dd90a7?auto=format&fit=crop&w=300&q=80
Winery and Herbs,51.6047186,5.4108314,North Brabant,Onbekend,Ja,Nee,Onbekend,Onbekend,https://www.wineryandherbs.nl/,,Onbekend,https://images.unsplash.com/photo-1523987355523-c7b5b0dd90a7?auto=format&fit=crop&w=300&q=80
De Miesboule,51.6354332,5.4072941,North Brabant,Onbekend,Nee,Nee,Onbekend,Onbekend,,+31 73 547 4821,Onbekend,https://images.unsplash.com/photo-1523987355523-c7b5b0dd90a7?auto=format&fit=crop&w=300&q=80
NTKC De Heerkuil,50.7907502,5.7766334,Limburg,Onbekend,Ja,Nee,Onbekend,Onbekend,https://www.kampeerclub.nl/terrein/kampeerterrein-de-heerkuil,,Onbekend,https://images.unsplash.com/photo-1523987355523-c7b5b0dd90a7?auto=format&fit=crop&w=300&q=80
Recreatiepark Maas en Bos,51.5336529,6.1422779,Limburg,Onbekend,Nee,Nee,Onbekend,Betaald,,,Onbekend,https://images.unsplash.com/photo-1523987355523-c7b5b0dd90a7?auto=format&fit=crop&w=300&q=80
Leijland,51.6509668,5.5684727,North Brabant,Onbekend,Nee,Nee,Onbekend,Onbekend,https://www.leijland.nl/,,Onbekend,https://images.unsplash.com/photo-1523987355523-c7b5b0dd90a7?auto=format&fit=crop&w=300&q=80
Boerderijcamping Poelhuis,52.008773,6.7385089,Gelderland,Onbekend,Nee,Nee,Onbekend,Onbekend,https://www.poelhuis.nl/,+31 543 569 246,Onbekend,https://images.unsplash.com/photo-1523987355523-c7b5b0dd90a7?auto=format&fit=crop&w=300&q=80
De Lanter Fanter,52.5327974,6.6485242,Overijssel,Onbekend,Nee,Nee,Onbekend,Onbekend,https://www.campinglanterfanter.nl,+31 6 45822126,Onbekend,https://images.unsplash.com/photo-1523987355523-c7b5b0dd90a7?auto=format&fit=crop&w=300&q=80
Camping de Lubert Groesbeek,51.7828135,5.9392049,Gelderland,Onbekend,Nee,Nee,Onbekend,Onbekend,https://www.campingdelubert.nl/,,Onbekend,https://images.unsplash.com/photo-1523987355523-c7b5b0dd90a7?auto=format&fit=crop&w=300&q=80
Mini camping De Kleine Weide,52.623462,6.6469016,Overijssel,Onbekend,Nee,Nee,Onbekend,Onbekend,https://www.campingdekleineweide.nl,,Onbekend,https://images.unsplash.com/photo-1523987355523-c7b5b0dd90a7?auto=format&fit=crop&w=300&q=80
Camping De Wijde Blick,51.7185191,3.7670116,Zeeland,Onbekend,Nee,Nee,Onbekend,Onbekend,https://www.molecaten.nl/wijde-blick,+31 111 468 888,Onbekend,https://images.unsplash.com/photo-1523987355523-c7b5b0dd90a7?auto=format&fit=crop&w=300&q=80
Camping de Strandloper,51.737173,3.8325619,Zeeland,Onbekend,Nee,Nee,Onbekend,Onbekend,https://www.destrandloper.nl/,,Onbekend,https://images.unsplash.com/photo-1523987355523-c7b5b0dd90a7?auto=format&fit=crop&w=300&q=80
De Nieuwe Welpshof,51.9424658,6.5420795,Gelderland,Onbekend,Nee,Nee,Onbekend,Onbekend,https://denieuwewelpshof.nl/,,Onbekend,https://images.unsplash.com/photo-1523987355523-c7b5b0dd90a7?auto=format&fit=crop&w=300&q=80
Boerderij 't Lankhof,51.9541531,6.5762045,Gelderland,Onbekend,Nee,Nee,Onbekend,Onbekend,https://www.tlankhof.nl/,,Onbekend,https://images.unsplash.com/photo-1523987355523-c7b5b0dd90a7?auto=format&fit=crop&w=300&q=80
The Hive,51.5857776,4.2150391,North Brabant,Ja,Nee,Nee,Onbekend,Onbekend,https://www.campercontact.com/nl/nederland/noord-brabant/nieuw-vossemeer/101439/camperplaats-the-hive,+31 6 12803583,Onbekend,https://images.unsplash.com/photo-1523987355523-c7b5b0dd90a7?auto=format&fit=crop&w=300&q=80
De Akker,51.9413403,5.495984,Gelderland,Onbekend,Nee,Nee,Onbekend,Onbekend,https://www.bbdeakker.nl/,,Onbekend,https://images.unsplash.com/photo-1523987355523-c7b5b0dd90a7?auto=format&fit=crop&w=300&q=80
Camping Te Boomsgoed,51.9259269,6.2620622,Gelderland,Onbekend,Nee,Nee,Onbekend,Onbekend,,,Onbekend,https://images.unsplash.com/photo-1523987355523-c7b5b0dd90a7?auto=format&fit=crop&w=300&q=80
Buitencentrum De Heikop,50.9276409,6.0103844,Limburg,Onbekend,Nee,Nee,Onbekend,Onbekend,https://www.deheikop.info/,,Onbekend,https://images.unsplash.com/photo-1523987355523-c7b5b0dd90a7?auto=format&fit=crop&w=300&q=80
minicamping ArcheryFarm,51.4589367,5.1886088,North Brabant,Onbekend,Nee,Nee,Onbekend,Onbekend,https://www.archeryfarm.nl/,+31 6 51449736,Onbekend,https://images.unsplash.com/photo-1523987355523-c7b5b0dd90a7?auto=format&fit=crop&w=300&q=80
Anne Marie Hoeve,51.5453087,5.2514891,North Brabant,Onbekend,Nee,Nee,Onbekend,Onbekend,https://www.campingannemariehoeve.nl/,+31 6 51339174,Onbekend,https://images.unsplash.com/photo-1523987355523-c7b5b0dd90a7?auto=format&fit=crop&w=300&q=80
Camping Het Karrewiel,51.5722306,5.1549516,North Brabant,Onbekend,Nee,Nee,Onbekend,Onbekend,,+31 13 533 3659,Onbekend,https://images.unsplash.com/photo-1523987355523-c7b5b0dd90a7?auto=format&fit=crop&w=300&q=80
De Bocht,51.5165399,5.3084585,North Brabant,Onbekend,Nee,Nee,Onbekend,Betaald,https://campingdebocht.nl/,+31 499 550 855,Onbekend,https://images.unsplash.com/photo-1523987355523-c7b5b0dd90a7?auto=format&fit=crop&w=300&q=80
De Roerdomp,51.4344149,5.2340005,North Brabant,Onbekend,Nee,Nee,Onbekend,Onbekend,https://www.deroerdomp.nl/,+31 13 514 1509,Onbekend,https://images.unsplash.com/photo-1523987355523-c7b5b0dd90a7?auto=format&fit=crop&w=300&q=80
De Achterste Hoef,51.3434035,5.2278062,North Brabant,Onbekend,Nee,Nee,Onbekend,Onbekend,https://www.achterstehoef.nl/,+31 497 381 579,Onbekend,https://images.unsplash.com/photo-1523987355523-c7b5b0dd90a7?auto=format&fit=crop&w=300&q=80
Kempenstee,51.3854442,5.3249399,North Brabant,Onbekend,Ja,Nee,Onbekend,Onbekend,https://www.campingkempenstee.nl,+31 497 781781,24/7,https://images.unsplash.com/photo-1523987355523-c7b5b0dd90a7?auto=format&fit=crop&w=300&q=80
Landschapscamping De Kleine Witrijt,51.3135762,5.2740339,North Brabant,Onbekend,Nee,Nee,Onbekend,Onbekend,https://www.domein-dekleinewitrijt.nl/camping/,,Onbekend,https://images.unsplash.com/photo-1523987355523-c7b5b0dd90a7?auto=format&fit=crop&w=300&q=80
Kampeerboerderij De Boskeelen,51.3831683,4.3367921,North Brabant,Onbekend,Ja,Nee,Onbekend,Onbekend,https://www.deboskeelen.nl,+31 164 674 401,Onbekend,https://images.unsplash.com/photo-1523987355523-c7b5b0dd90a7?auto=format&fit=crop&w=300&q=80
Achter 't Heezerenbosch,51.3732299,5.543843,North Brabant,Onbekend,Nee,Nee,Onbekend,Betaald,https://heezerenbosch.scouting.nl,,Onbekend,https://images.unsplash.com/photo-1523987355523-c7b5b0dd90a7?auto=format&fit=crop&w=300&q=80
Manege Groepsaccomodatie Het Hoefke,51.5093779,5.0116774,North Brabant,Onbekend,Nee,Nee,Onbekend,Onbekend,https://www.manegehoefke.nl/,,Onbekend,https://images.unsplash.com/photo-1523987355523-c7b5b0dd90a7?auto=format&fit=crop&w=300&q=80
Minicamping Aelderveen,52.8016938,6.6885573,Drenthe,Onbekend,Nee,Nee,Onbekend,Onbekend,https://aelderveen.nl/,,Onbekend,https://images.unsplash.com/photo-1523987355523-c7b5b0dd90a7?auto=format&fit=crop&w=300&q=80
Kurenpolder,51.7278261,4.887326,North Brabant,Onbekend,Nee,Nee,Onbekend,Onbekend,,,Onbekend,https://images.unsplash.com/photo-1523987355523-c7b5b0dd90a7?auto=format&fit=crop&w=300&q=80
Vakantieoord De Kiekebelt,52.3876025,6.5886574,Overijssel,Onbekend,Nee,Nee,Onbekend,Onbekend,https://www.dekiekebelt.nl,,Onbekend,https://images.unsplash.com/photo-1523987355523-c7b5b0dd90a7?auto=format&fit=crop&w=300&q=80
De biologische boer Tom Verkerk,52.0101816,5.3302674,Utrecht,Onbekend,Nee,Nee,Onbekend,Onbekend,https://boerverkerk.nl,,Onbekend,https://images.unsplash.com/photo-1523987355523-c7b5b0dd90a7?auto=format&fit=crop&w=300&q=80
Boerderijcamping de Hank,52.0995421,6.2001345,Gelderland,Onbekend,Nee,Nee,Onbekend,Onbekend,https://www.campingdehank.nl/,,Onbekend,https://images.unsplash.com/photo-1523987355523-c7b5b0dd90a7?auto=format&fit=crop&w=300&q=80
Scoutcentrum Harderhaven,52.3699497,5.6145461,Gelderland,Onbekend,Nee,Nee,Onbekend,Onbekend,https://harderhaven.scouting.nl/,,Onbekend,https://images.unsplash.com/photo-1523987355523-c7b5b0dd90a7?auto=format&fit=crop&w=300&q=80
Minicamping Johan & Caroline,51.6632811,4.7664313,North Brabant,Onbekend,Nee,Nee,Onbekend,Onbekend,,,Onbekend,https://images.unsplash.com/photo-1523987355523-c7b5b0dd90a7?auto=format&fit=crop&w=300&q=80
Kamp-Bivakboerderij Greijmans,51.3506814,5.6880722,North Brabant,Onbekend,Nee,Nee,Onbekend,Onbekend,https://www.kamp-bivakboerderij-greijmans.nl,+31 493 491 827,Onbekend,https://images.unsplash.com/photo-1523987355523-c7b5b0dd90a7?auto=format&fit=crop&w=300&q=80
Boerderijcamping Van Bergeijk,51.7512502,4.8407055,North Brabant,Onbekend,Nee,Nee,Onbekend,Onbekend,https://campingbergeijk.wixsite.com/reserveren/,+31 183 500 246,Onbekend,https://images.unsplash.com/photo-1523987355523-c7b5b0dd90a7?auto=format&fit=crop&w=300&q=80
Naturistencamping ONS Kantelhuis,52.9734005,6.8869589,Groningen,Onbekend,Nee,Nee,Onbekend,Onbekend,https://onskantelhuis.nl/,,Onbekend,https://images.unsplash.com/photo-1523987355523-c7b5b0dd90a7?auto=format&fit=crop&w=300&q=80
Receptie RCN de Schotsman,51.5693084,3.6604868,Zeeland,Onbekend,Ja,Nee,Onbekend,Onbekend,https://www.rcn.nl,+31 85 040 0700,Onbekend,https://images.unsplash.com/photo-1523987355523-c7b5b0dd90a7?auto=format&fit=crop&w=300&q=80
Camping Koegras,52.8874448,4.7513884,North Holland,Onbekend,Nee,Nee,Onbekend,Onbekend,https://www.campingkoegras.nl/index.php/nl,+31 223 641 201,Onbekend,https://images.unsplash.com/photo-1523987355523-c7b5b0dd90a7?auto=format&fit=crop&w=300&q=80
Boscamping Appelscha,52.9213673,6.3446287,Drenthe,Onbekend,Nee,Nee,Onbekend,Onbekend,https://boscampingappelscha.nl/,,Onbekend,https://images.unsplash.com/photo-1523987355523-c7b5b0dd90a7?auto=format&fit=crop&w=300&q=80
De Meenthe natuurkampeerterrein,52.900704,6.1253137,Friesland,Onbekend,Nee,Nee,Onbekend,Onbekend,https://www.meenthe.nl,,Onbekend,https://images.unsplash.com/photo-1523987355523-c7b5b0dd90a7?auto=format&fit=crop&w=300&q=80
Landgoed Julianahoeve,51.4113306,5.9013442,Limburg,Onbekend,Nee,Nee,Onbekend,Onbekend,https://www.landgoed-julianahoeve.nl,+31 6 82941946,Onbekend,https://images.unsplash.com/photo-1523987355523-c7b5b0dd90a7?auto=format&fit=crop&w=300&q=80
Oxerkamp,52.2288216,6.2395014,Gelderland,Onbekend,Nee,Nee,Onbekend,Betaald,https://www.zomerkampoxe.com,,Onbekend,https://images.unsplash.com/photo-1523987355523-c7b5b0dd90a7?auto=format&fit=crop&w=300&q=80
Strosteeg,52.0339243,5.2656496,Utrecht,Onbekend,Nee,Nee,Onbekend,Onbekend,https://www.strosteeg.nl,+31 6 28570895,Onbekend,https://images.unsplash.com/photo-1523987355523-c7b5b0dd90a7?auto=format&fit=crop&w=300&q=80
Minicamping Rust en Ruimte,51.5237753,5.5725176,North Brabant,Onbekend,Nee,Nee,Onbekend,16 EUR,https://www.rustenruimte.info,+31 499 421 272,Onbekend,https://images.unsplash.com/photo-1523987355523-c7b5b0dd90a7?auto=format&fit=crop&w=300&q=80
Labelterrein Davy Crockett Hoeve,53.0218383,7.0739135,Groningen,Onbekend,Nee,Nee,Onbekend,Onbekend,,,Onbekend,https://images.unsplash.com/photo-1523987355523-c7b5b0dd90a7?auto=format&fit=crop&w=300&q=80
Camperplaats Jachthaven Strijensas,51.7157025,4.5895769,South Holland,Onbekend,Ja,Ja,Onbekend,18 EUR,https://www.jachthavenstrijensas.nl/camperplaatsen,,Onbekend,https://images.unsplash.com/photo-1523987355523-c7b5b0dd90a7?auto=format&fit=crop&w=300&q=80
Jachthaven 'De Lemsterpoort',52.8922374,5.6469108,Friesland,Onbekend,Nee,Nee,Onbekend,Onbekend,,+31 514 531 668,Onbekend,https://images.unsplash.com/photo-1523987355523-c7b5b0dd90a7?auto=format&fit=crop&w=300&q=80
Camping de la rue,51.8115225,4.9417595,South Holland,Onbekend,Nee,Nee,Onbekend,Onbekend,https://www.campingdelarue.nl,,Onbekend,https://images.unsplash.com/photo-1523987355523-c7b5b0dd90a7?auto=format&fit=crop&w=300&q=80
De Hoge Waard,51.7781055,5.0799717,North Brabant,Onbekend,Nee,Nee,Onbekend,Onbekend,,,Onbekend,https://images.unsplash.com/photo-1523987355523-c7b5b0dd90a7?auto=format&fit=crop&w=300&q=80
Camping De Maashorst,51.7309381,5.6031502,North Brabant,Onbekend,Nee,Nee,Onbekend,Onbekend,https://campingdemaashorst.nl,,Onbekend,https://images.unsplash.com/photo-1523987355523-c7b5b0dd90a7?auto=format&fit=crop&w=300&q=80
Kampeerhoeve Bussloo,52.2087463,6.1094262,Gelderland,Onbekend,Nee,Nee,Onbekend,Onbekend,https://www.kampeerhoevebussloo.nl/,,Onbekend,https://images.unsplash.com/photo-1523987355523-c7b5b0dd90a7?auto=format&fit=crop&w=300&q=80
Camping Boschheide,51.243474,6.060835,Limburg,Onbekend,Nee,Nee,Onbekend,Onbekend,https://www.boschheide.nl,+31 6 43431553,Onbekend,https://images.unsplash.com/photo-1523987355523-c7b5b0dd90a7?auto=format&fit=crop&w=300&q=80
Farmcamps de Boderie,52.3802901,6.7280891,Overijssel,Onbekend,Nee,Nee,Onbekend,Onbekend,https://www.de-boderie.nl,+31 6 46457909,Onbekend,https://images.unsplash.com/photo-1523987355523-c7b5b0dd90a7?auto=format&fit=crop&w=300&q=80
De Midden Veluwe,52.1403181,5.7573374,Gelderland,Onbekend,Nee,Nee,Onbekend,Onbekend,https://demiddenveluwe.nl/,+31 318 456 491,Onbekend,https://images.unsplash.com/photo-1523987355523-c7b5b0dd90a7?auto=format&fit=crop&w=300&q=80
Camping Bruinsbergen,51.7296437,5.7184273,North Brabant,Onbekend,Nee,Nee,Onbekend,Onbekend,https://www.bruinsbergen.nl/,+31 486 473 366,Onbekend,https://images.unsplash.com/photo-1523987355523-c7b5b0dd90a7?auto=format&fit=crop&w=300&q=80
Stadscamping Bolsward,53.0630536,5.5282986,Friesland,Onbekend,Nee,Nee,Onbekend,Onbekend,https://sudwestfryslan.nl/onderwerp/vitaloo-stadscamping/,+31 515 573 573,Onbekend,https://images.unsplash.com/photo-1523987355523-c7b5b0dd90a7?auto=format&fit=crop&w=300&q=80
Maran Camping,53.0126996,5.7852975,Friesland,Onbekend,Nee,Nee,Onbekend,Onbekend,https://www.maran.nl/accommodaties/camping-maran,+31 566 689 305,Onbekend,https://images.unsplash.com/photo-1523987355523-c7b5b0dd90a7?auto=format&fit=crop&w=300&q=80
Camping de Muk,51.8679491,5.6946913,Gelderland,Onbekend,Nee,Nee,Onbekend,Onbekend,http://www.campingdemuk.nl,,Onbekend,https://images.unsplash.com/photo-1523987355523-c7b5b0dd90a7?auto=format&fit=crop&w=300&q=80
Camping Kleine Stelle,51.523464,3.9853706,Zeeland,Onbekend,Nee,Nee,Onbekend,Onbekend,http://kleinstelle.nl/camping/,,Onbekend,https://images.unsplash.com/photo-1523987355523-c7b5b0dd90a7?auto=format&fit=crop&w=300&q=80
"mini camping ""Bedafs Hofke""",51.6627951,5.5811966,North Brabant,Onbekend,Nee,Nee,Onbekend,Onbekend,https://www.bedafshofke.nl/,,Onbekend,https://images.unsplash.com/photo-1523987355523-c7b5b0dd90a7?auto=format&fit=crop&w=300&q=80
Hoeve Landzicht,52.830611,4.7064305,North Holland,Onbekend,Nee,Nee,Onbekend,Onbekend,http://www.campinghoevelandzicht.nl,,Onbekend,https://images.unsplash.com/photo-1523987355523-c7b5b0dd90a7?auto=format&fit=crop&w=300&q=80
Camperplaats Vogelenzang,51.9683084,5.8354675,Gelderland,Onbekend,Ja,Nee,5,Betaald,https://devogelenzangcamper.nl,,Onbekend,https://images.unsplash.com/photo-1523987355523-c7b5b0dd90a7?auto=format&fit=crop&w=300&q=80
Minicamping Achter t Hofke,51.8987915,5.7689339,Gelderland,Onbekend,Nee,Nee,Onbekend,Onbekend,,+31 6 49764342,Onbekend,https://images.unsplash.com/photo-1523987355523-c7b5b0dd90a7?auto=format&fit=crop&w=300&q=80
Stop & Go camping Hindeloopen,52.9337995,5.4073359,Friesland,Nee,Ja,Nee,Onbekend,17.50 EUR,https://www.campinghindeloopen.nl/accommodaties/kamperen/camperplaatsen,,Onbekend,https://images.unsplash.com/photo-1523987355523-c7b5b0dd90a7?auto=format&fit=crop&w=300&q=80
Kampeerplaats De Leaghte,52.5201652,6.0088226,Gelderland,Onbekend,Nee,Nee,Onbekend,Onbekend,https://www.kampeerplaatsdeleaghte.nl,+31 6 24271135,Onbekend,https://images.unsplash.com/photo-1523987355523-c7b5b0dd90a7?auto=format&fit=crop&w=300&q=80
Farmcamps de Stolkse Weide,51.9741483,4.7818929,South Holland,Onbekend,Ja,Nee,Onbekend,Onbekend,https://www.farmcamps.nl/Boerderijen/FarmCamps-Stolkse-Weide.html,,Onbekend,https://images.unsplash.com/photo-1523987355523-c7b5b0dd90a7?auto=format&fit=crop&w=300&q=80
Bungalowpark Kastelenhof,52.2428019,5.7091927,Gelderland,Onbekend,Nee,Nee,Onbekend,Onbekend,https://www.kastelenhof.nl,+31 577 461 386,Onbekend,https://images.unsplash.com/photo-1523987355523-c7b5b0dd90a7?auto=format&fit=crop&w=300&q=80
Hoeve Voorwaarts,52.854099,4.7156126,North Holland,Onbekend,Nee,Nee,Onbekend,Onbekend,https://www.hoevevoorwaarts.nl,,Onbekend,https://images.unsplash.com/photo-1523987355523-c7b5b0dd90a7?auto=format&fit=crop&w=300&q=80
Camping De kroft,52.848815,4.7222167,North Holland,Onbekend,Nee,Nee,Onbekend,Onbekend,http://www.dekroft.nl,,Onbekend,https://images.unsplash.com/photo-1523987355523-c7b5b0dd90a7?auto=format&fit=crop&w=300&q=80
Camping De Ooster Nollen,52.8330851,4.7182843,North Holland,Ja,Ja,Ja,Onbekend,22 EUR + turist_tax,https://www.ncc.nl/campings/callantsoog-de-ooster-nollen/,,Onbekend,https://images.unsplash.com/photo-1523987355523-c7b5b0dd90a7?auto=format&fit=crop&w=300&q=80
Beverplaats 't Mun,51.8429985,5.5624932,Gelderland,Onbekend,Ja,Nee,30,15.60 EUR,https://munappeltern.nl,,Onbekend,https://images.unsplash.com/photo-1523987355523-c7b5b0dd90a7?auto=format&fit=crop&w=300&q=80
Het wapen van Delden,52.2599483,6.6824015,Overijssel,Onbekend,Ja,Ja,Onbekend,Onbekend,,,Onbekend,https://images.unsplash.com/photo-1523987355523-c7b5b0dd90a7?auto=format&fit=crop&w=300&q=80
"Mini-Camping ""De Witboom""",51.7872538,4.7942378,South Holland,Onbekend,Ja,Nee,Onbekend,Onbekend,https://www.biesboschvakantie.nl/mini-camping/,+31 183 504 036,Onbekend,https://images.unsplash.com/photo-1523987355523-c7b5b0dd90a7?auto=format&fit=crop&w=300&q=80
Natuurkampeerterrein De Marsbelte,52.3515667,6.1926949,Overijssel,Onbekend,Ja,Nee,25,Betaald,,,Onbekend,https://images.unsplash.com/photo-1523987355523-c7b5b0dd90a7?auto=format&fit=crop&w=300&q=80
De Neul,51.5673823,5.4581815,North Brabant,Onbekend,Ja,Nee,Onbekend,Onbekend,,,Onbekend,https://images.unsplash.com/photo-1523987355523-c7b5b0dd90a7?auto=format&fit=crop&w=300&q=80
Recreatiecentrum Het Zwarte Water,51.5547084,5.7438434,North Brabant,Onbekend,Nee,Nee,Onbekend,Onbekend,https://www.hetzwartewater.nl,+31 492 319 292,Onbekend,https://images.unsplash.com/photo-1523987355523-c7b5b0dd90a7?auto=format&fit=crop&w=300&q=80
De Vlierhof,52.0735205,6.602521,Gelderland,Onbekend,Nee,Nee,Onbekend,Onbekend,,,Onbekend,https://images.unsplash.com/photo-1523987355523-c7b5b0dd90a7?auto=format&fit=crop&w=300&q=80
Natuurcamping Buizerd,52.0385279,6.3930926,Gelderland,Onbekend,Nee,Nee,Onbekend,Onbekend,https://www.landgoedhetzand.nl,,Onbekend,https://images.unsplash.com/photo-1523987355523-c7b5b0dd90a7?auto=format&fit=crop&w=300&q=80
Natuurcamping Hazeveld,52.0339974,6.3857748,Gelderland,Onbekend,Nee,Nee,Onbekend,Onbekend,https://www.landgoedhetzand.nl,,Onbekend,https://images.unsplash.com/photo-1523987355523-c7b5b0dd90a7?auto=format&fit=crop&w=300&q=80
Natuurcamping Konijnenwei,52.0371516,6.3802827,Gelderland,Onbekend,Nee,Nee,Onbekend,Onbekend,https://www.landgoedhetzand.nl,,Onbekend,https://images.unsplash.com/photo-1523987355523-c7b5b0dd90a7?auto=format&fit=crop&w=300&q=80
Natuurcamping Reebok,52.0493681,6.4061147,Gelderland,Onbekend,Nee,Nee,Onbekend,Onbekend,https://www.landgoedhetzand.nl,,Onbekend,https://images.unsplash.com/photo-1523987355523-c7b5b0dd90a7?auto=format&fit=crop&w=300&q=80
Natuurcamping Specht,52.0343127,6.3863913,Gelderland,Onbekend,Nee,Nee,Onbekend,Onbekend,https://www.landgoedhetzand.nl,,Onbekend,https://images.unsplash.com/photo-1523987355523-c7b5b0dd90a7?auto=format&fit=crop&w=300&q=80
Molenheide Poppel,51.46677,5.067727,North Brabant,Onbekend,Nee,Nee,10,Gratis,https://www.bivakzone.be/molenheide.html,,24/7,https://images.unsplash.com/photo-1523987355523-c7b5b0dd90a7?auto=format&fit=crop&w=300&q=80
Camping de Peelpoort,51.3615769,5.7701871,North Brabant,Onbekend,Nee,Nee,Onbekend,Onbekend,,,Onbekend,https://images.unsplash.com/photo-1523987355523-c7b5b0dd90a7?auto=format&fit=crop&w=300&q=80
Recreatiebedrijf Boot,51.7150504,3.7982239,Zeeland,Onbekend,Nee,Nee,Onbekend,Onbekend,https://www.recreatiebedrijfboot.nl/nl/,,Onbekend,https://images.unsplash.com/photo-1523987355523-c7b5b0dd90a7?auto=format&fit=crop&w=300&q=80
De Brömmels Camping en Geitenkaasboerderij,51.921584,6.7192285,Gelderland,Onbekend,Nee,Nee,Onbekend,Onbekend,https://www.brommels.nl/,,Onbekend,https://images.unsplash.com/photo-1523987355523-c7b5b0dd90a7?auto=format&fit=crop&w=300&q=80
Camperparkeerplaats Hansweert,51.4444179,4.0067896,Zeeland,Onbekend,Nee,Nee,5,Gratis,https://www.reimerswaal.nl/camperparkeerplaats-hansweert,,Onbekend,https://images.unsplash.com/photo-1523987355523-c7b5b0dd90a7?auto=format&fit=crop&w=300&q=80
De Mölnhöfte,52.191302,6.5740098,Overijssel,Onbekend,Nee,Nee,Onbekend,Onbekend,https://www.molnhofte.nl/,,Onbekend,https://images.unsplash.com/photo-1523987355523-c7b5b0dd90a7?auto=format&fit=crop&w=300&q=80
De Kraanvensche Berg,51.6308114,5.0379499,North Brabant,Onbekend,Nee,Nee,Onbekend,Onbekend,https://www.dekraanvenscheberg.nl/,,Onbekend,https://images.unsplash.com/photo-1523987355523-c7b5b0dd90a7?auto=format&fit=crop&w=300&q=80
Camping Op de Veranda,51.4011775,5.1747688,North Brabant,Onbekend,Nee,Nee,Onbekend,Onbekend,,,Onbekend,https://images.unsplash.com/photo-1523987355523-c7b5b0dd90a7?auto=format&fit=crop&w=300&q=80
Minicamping Waverijn,51.7099871,3.7491743,Zeeland,Onbekend,Nee,Nee,Onbekend,Onbekend,http://minicampingzeeland.eu/,+31 111 651 269,Onbekend,https://images.unsplash.com/photo-1523987355523-c7b5b0dd90a7?auto=format&fit=crop&w=300&q=80
Dennedune,53.4001198,5.3475176,Friesland,Onbekend,Nee,Nee,Onbekend,Onbekend,https://www.dennedune.nl/,+31 562 448 196,Onbekend,https://images.unsplash.com/photo-1523987355523-c7b5b0dd90a7?auto=format&fit=crop&w=300&q=80
Motorcamping 't Witveen,53.1703802,6.1092004,Friesland,Onbekend,Nee,Nee,Onbekend,Onbekend,https://www.motorcampingwitveen.nl,+31 6 49044904,Onbekend,https://images.unsplash.com/photo-1523987355523-c7b5b0dd90a7?auto=format&fit=crop&w=300&q=80
De Vier Elementen,52.1790927,5.0433024,Utrecht,Onbekend,Nee,Nee,Onbekend,Onbekend,https://devierelementen.zonenleven.nl/,+31 6 13691414,Onbekend,https://images.unsplash.com/photo-1523987355523-c7b5b0dd90a7?auto=format&fit=crop&w=300&q=80
Amsterdamse Lichtbond Naturistenvereniging Dagrecreatie,52.2752537,5.0994496,North Holland,Onbekend,Nee,Nee,Onbekend,Onbekend,https://www.alb-naturisme.nl/,+31 35 656 3493,Onbekend,https://images.unsplash.com/photo-1523987355523-c7b5b0dd90a7?auto=format&fit=crop&w=300&q=80
Gravingen,52.1476558,5.0982217,Utrecht,Onbekend,Nee,Nee,Onbekend,Onbekend,https://gravingen.zonenleven.nl,+31 6 42429746,Onbekend,https://images.unsplash.com/photo-1523987355523-c7b5b0dd90a7?auto=format&fit=crop&w=300&q=80
Camperplaats Loevestein,51.8143765,5.0274707,North Brabant,Onbekend,Nee,Nee,4,Gratis,https://www.slotloevestein.nl/camperplaats/,,Onbekend,https://images.unsplash.com/photo-1523987355523-c7b5b0dd90a7?auto=format&fit=crop&w=300&q=80
Camping Olmenveld,51.5440753,3.6086113,Zeeland,Onbekend,Nee,Nee,Onbekend,Betaald,https://www.campingolmenveld.nl,,Onbekend,https://images.unsplash.com/photo-1523987355523-c7b5b0dd90a7?auto=format&fit=crop&w=300&q=80
Kanocamping de Dobbe,53.362871,6.4515883,Groningen,Onbekend,Nee,Nee,Onbekend,Onbekend,,+31 6 36509616,Onbekend,https://images.unsplash.com/photo-1523987355523-c7b5b0dd90a7?auto=format&fit=crop&w=300&q=80
Coens Camping,52.0205992,6.2947734,Gelderland,Onbekend,Nee,Nee,15,Onbekend,https://www.coenevers.nl/,+31 314 641 392,Onbekend,https://images.unsplash.com/photo-1523987355523-c7b5b0dd90a7?auto=format&fit=crop&w=300&q=80
Familie Camping De Belten,52.5511676,6.5765879,Overijssel,Onbekend,Nee,Nee,Onbekend,Onbekend,https://www.debelten.nl/,+31 523 262 264,Onbekend,https://images.unsplash.com/photo-1523987355523-c7b5b0dd90a7?auto=format&fit=crop&w=300&q=80
Camping de Oldemeyer,52.5488076,6.5750108,Overijssel,Onbekend,Nee,Nee,Onbekend,Betaald,https://www.oldemeyer.nl/,+31 523 262 805,Onbekend,https://images.unsplash.com/photo-1523987355523-c7b5b0dd90a7?auto=format&fit=crop&w=300&q=80
De Kleine Belties,52.5628272,6.5930325,Overijssel,Onbekend,Nee,Nee,Onbekend,Onbekend,https://www.kleinebelties.nl/,+31 523 261 303,Onbekend,https://images.unsplash.com/photo-1523987355523-c7b5b0dd90a7?auto=format&fit=crop&w=300&q=80
Kanokampeerplek Kluitenberg,52.6713035,6.0303948,Overijssel,Onbekend,Nee,Nee,Onbekend,Gratis,,,Onbekend,https://images.unsplash.com/photo-1523987355523-c7b5b0dd90a7?auto=format&fit=crop&w=300&q=80
Scouting kampeereiland 't Mieuwtje Jisp,52.5120928,4.8492004,North Holland,Onbekend,Nee,Nee,Onbekend,Onbekend,https://scoutingkampeereilandjisp.nl/,,Onbekend,https://images.unsplash.com/photo-1523987355523-c7b5b0dd90a7?auto=format&fit=crop&w=300&q=80
Krieghuusbelten,52.4273311,6.3100709,Overijssel,Onbekend,Nee,Nee,Onbekend,Onbekend,https://www.krieghuusbelten.nl,+31 572 371 575,Onbekend,https://images.unsplash.com/photo-1523987355523-c7b5b0dd90a7?auto=format&fit=crop&w=300&q=80
Camperplaats Nijverheidssingel,51.5878536,4.7635902,North Brabant,Onbekend,Nee,Ja,8,7 EUR/24 hour,https://www.breda.nl/camperplaats,,Onbekend,https://images.unsplash.com/photo-1523987355523-c7b5b0dd90a7?auto=format&fit=crop&w=300&q=80
Bloemketerp,53.1892162,5.5527428,Friesland,Onbekend,Nee,Nee,111,Onbekend,https://www.bloemketerp.nl/,+31 517 395 099,Onbekend,https://images.unsplash.com/photo-1523987355523-c7b5b0dd90a7?auto=format&fit=crop&w=300&q=80
camping 't Haike,51.2933045,5.3620883,North Brabant,Onbekend,Nee,Nee,15,Onbekend,,,Onbekend,https://images.unsplash.com/photo-1523987355523-c7b5b0dd90a7?auto=format&fit=crop&w=300&q=80
Camperplaatsen ‌ Pekelharinghaven - Medemblik,52.7716076,5.1135381,North Holland,Onbekend,Ja,Nee,5,Betaald,https://stadshavensmedemblik.nl/reserveren/camperplek,+31 227 609886,Onbekend,https://images.unsplash.com/photo-1523987355523-c7b5b0dd90a7?auto=format&fit=crop&w=300&q=80
Buitenplaats de Luwte,52.5243239,6.1682893,Overijssel,Onbekend,Nee,Nee,Onbekend,Onbekend,https://www.buitenplaatsdeluwte.nl/,,Onbekend,https://images.unsplash.com/photo-1523987355523-c7b5b0dd90a7?auto=format&fit=crop&w=300&q=80
Camping Landgoed Molecaten,52.4660714,6.0571242,Gelderland,Onbekend,Nee,Nee,Onbekend,Onbekend,https://www.molecaten.nl/landgoed-molecaten,+31 38 444 7044,Onbekend,https://images.unsplash.com/photo-1523987355523-c7b5b0dd90a7?auto=format&fit=crop&w=300&q=80
RCN Vakantiepark de Flaasbloem,51.4910978,4.8953668,North Brabant,Onbekend,Nee,Nee,Onbekend,Onbekend,https://www.rcn.nl/nl/vakantieparken/nederland/brabant/rcn-de-flaasbloem,,Onbekend,https://images.unsplash.com/photo-1523987355523-c7b5b0dd90a7?auto=format&fit=crop&w=300&q=80
Camperplek Stal Vonk,51.834394,4.8630841,South Holland,Onbekend,Nee,Nee,Onbekend,Betaald,https://www.giessenburg.nl/bedrijven/stal_vonk/index.htm,,Onbekend,https://images.unsplash.com/photo-1523987355523-c7b5b0dd90a7?auto=format&fit=crop&w=300&q=80
Alliance,51.6062801,4.8660344,North Brabant,Onbekend,Nee,Nee,Onbekend,Onbekend,,,Onbekend,https://images.unsplash.com/photo-1523987355523-c7b5b0dd90a7?auto=format&fit=crop&w=300&q=80
NTKC De Smagten,51.3501611,5.2168732,North Brabant,Onbekend,Ja,Nee,Onbekend,Onbekend,https://www.kampeerclub.nl/terrein/kampeerterrein-de-smagten,,Onbekend,https://images.unsplash.com/photo-1523987355523-c7b5b0dd90a7?auto=format&fit=crop&w=300&q=80
De Hannebroeck,51.6071772,4.8587039,North Brabant,Onbekend,Nee,Nee,Onbekend,Onbekend,https://chaletpark-dehannebroeck.nl,,Onbekend,https://images.unsplash.com/photo-1523987355523-c7b5b0dd90a7?auto=format&fit=crop&w=300&q=80
De Dassenboom,51.950811,6.196839,Gelderland,Onbekend,Nee,Nee,Onbekend,Onbekend,http://www.dedassenboom.nl/,,Onbekend,https://images.unsplash.com/photo-1523987355523-c7b5b0dd90a7?auto=format&fit=crop&w=300&q=80
De Nieuwenhof,51.6790641,5.7729505,North Brabant,Onbekend,Nee,Nee,Onbekend,Onbekend,https://www.groepsaccommodatiedenieuwenhof.nl,,Onbekend,https://images.unsplash.com/photo-1523987355523-c7b5b0dd90a7?auto=format&fit=crop&w=300&q=80
Mast,53.3902561,5.3061087,Friesland,Onbekend,Ja,Nee,200,Onbekend,,,Onbekend,https://images.unsplash.com/photo-1523987355523-c7b5b0dd90a7?auto=format&fit=crop&w=300&q=80
Minicamping Beachclub Puur,51.7060811,4.8215895,North Brabant,Onbekend,Nee,Nee,Onbekend,Onbekend,,,Onbekend,https://images.unsplash.com/photo-1523987355523-c7b5b0dd90a7?auto=format&fit=crop&w=300&q=80
Natuurcamping Fort WKU,51.9860047,5.1597763,Utrecht,Onbekend,Nee,Nee,Onbekend,Onbekend,https://www.fortwku.nl/kamperen,,Onbekend,https://images.unsplash.com/photo-1523987355523-c7b5b0dd90a7?auto=format&fit=crop&w=300&q=80
Boerin Marie,52.2641003,4.8722268,North Holland,Onbekend,Nee,Nee,Onbekend,Onbekend,https://www.boerinmarie.nl/,,Onbekend,https://images.unsplash.com/photo-1523987355523-c7b5b0dd90a7?auto=format&fit=crop&w=300&q=80
Nieuw Leven,52.82176,5.7250948,Friesland,Onbekend,Nee,Nee,Onbekend,Onbekend,,,Onbekend,https://images.unsplash.com/photo-1523987355523-c7b5b0dd90a7?auto=format&fit=crop&w=300&q=80
Camperplaats Voorst,52.1516646,6.0936167,Gelderland,Onbekend,Ja,Nee,Onbekend,Betaald,https://www.camperplaatsvoorst.nl,,Onbekend,https://images.unsplash.com/photo-1523987355523-c7b5b0dd90a7?auto=format&fit=crop&w=300&q=80
Minicamping De Achterhoek,52.0640537,6.273849,Gelderland,Onbekend,Nee,Nee,24,Onbekend,https://www.minicampingdeachterhoek.nl/25/minicamping+de+achterhoek,,Onbekend,https://images.unsplash.com/photo-1523987355523-c7b5b0dd90a7?auto=format&fit=crop&w=300&q=80
Resort Marina Oolderhuuske,51.1922741,5.9493562,Limburg,Onbekend,Nee,Nee,Onbekend,Onbekend,,+31 475 588 686,Onbekend,https://images.unsplash.com/photo-1523987355523-c7b5b0dd90a7?auto=format&fit=crop&w=300&q=80
't Peeske,51.9025158,6.1963289,Gelderland,Onbekend,Nee,Nee,Onbekend,Onbekend,,,Onbekend,https://images.unsplash.com/photo-1523987355523-c7b5b0dd90a7?auto=format&fit=crop&w=300&q=80
Camping de Boswachter,51.8784152,6.2130202,Gelderland,Onbekend,Nee,Nee,Onbekend,Onbekend,,,Onbekend,https://images.unsplash.com/photo-1523987355523-c7b5b0dd90a7?auto=format&fit=crop&w=300&q=80
Camping Golfzang,52.7860292,4.6979004,North Holland,Onbekend,Nee,Nee,Onbekend,Onbekend,https://www.campinggolfzang.nl,,Onbekend,https://images.unsplash.com/photo-1523987355523-c7b5b0dd90a7?auto=format&fit=crop&w=300&q=80
Natuurkampeerterrein Aaster Uiltje,53.4002161,5.3514586,Friesland,Onbekend,Nee,Nee,Onbekend,Onbekend,https://aasteruiltje.nl/,+31 6 38108093,Onbekend,https://images.unsplash.com/photo-1523987355523-c7b5b0dd90a7?auto=format&fit=crop&w=300&q=80
De Vetweide,52.1645548,6.298441,Gelderland,Onbekend,Nee,Nee,Onbekend,Onbekend,https://www.devetweide.nl/,,Onbekend,https://images.unsplash.com/photo-1523987355523-c7b5b0dd90a7?auto=format&fit=crop&w=300&q=80
Camping De Morgenster,51.8622296,5.648236,Gelderland,Onbekend,Nee,Nee,Onbekend,Onbekend,https://www.campingdemorgenster.nl,+31 487 532 305,Onbekend,https://images.unsplash.com/photo-1523987355523-c7b5b0dd90a7?auto=format&fit=crop&w=300&q=80
't Akkerenven,51.4248551,4.3641043,North Brabant,Onbekend,Nee,Nee,Onbekend,Onbekend,http://www.akkerenven.nl/,+31 164 642 483,Onbekend,https://images.unsplash.com/photo-1523987355523-c7b5b0dd90a7?auto=format&fit=crop&w=300&q=80
Minicamping Slappeterp,53.2185358,5.6274153,Friesland,Onbekend,Nee,Nee,Onbekend,Onbekend,https://www.minicampingslappeterp.nl,,Onbekend,https://images.unsplash.com/photo-1523987355523-c7b5b0dd90a7?auto=format&fit=crop&w=300&q=80
De Meijsberg Chalet- en Stacaravanpark,51.4983839,4.8791211,North Brabant,Onbekend,Nee,Nee,Onbekend,Onbekend,,,Onbekend,https://images.unsplash.com/photo-1523987355523-c7b5b0dd90a7?auto=format&fit=crop&w=300&q=80
Mini Camping 't Skônste Plekske,51.6037604,5.4314583,North Brabant,Onbekend,Nee,Nee,Onbekend,Onbekend,http://hetskonsteplekske.nl/,,Onbekend,https://images.unsplash.com/photo-1523987355523-c7b5b0dd90a7?auto=format&fit=crop&w=300&q=80
De Fontein,52.091199,6.6240061,Gelderland,Onbekend,Nee,Nee,Onbekend,Onbekend,,,Onbekend,https://images.unsplash.com/photo-1523987355523-c7b5b0dd90a7?auto=format&fit=crop&w=300&q=80
Eurocamping Vessem bv,51.4135285,5.2736241,North Brabant,Onbekend,Nee,Nee,Onbekend,Onbekend,https://www.eurocampingvessem.nl/,+31 497 591 214,24/7,https://images.unsplash.com/photo-1523987355523-c7b5b0dd90a7?auto=format&fit=crop&w=300&q=80
Carpoolplaats de Wilg,51.5212629,5.3941054,North Brabant,Onbekend,Nee,Nee,3,Gratis,,,Onbekend,https://images.unsplash.com/photo-1523987355523-c7b5b0dd90a7?auto=format&fit=crop&w=300&q=80
Erve Kievit,52.1784532,6.7587156,Overijssel,Onbekend,Nee,Nee,Onbekend,Onbekend,https://www.ervekievit.nl,+31 6 53355295,Onbekend,https://images.unsplash.com/photo-1523987355523-c7b5b0dd90a7?auto=format&fit=crop&w=300&q=80
Camping Markdal,51.6162236,4.5281038,North Brabant,Onbekend,Nee,Nee,Onbekend,Onbekend,https://www.campingmarkdal.nl,+31 165 312 169,Onbekend,https://images.unsplash.com/photo-1523987355523-c7b5b0dd90a7?auto=format&fit=crop&w=300&q=80
Paalkampeerterrein Frytsjam,53.2400315,6.0968381,Friesland,Onbekend,Nee,Nee,Onbekend,Gratis,https://www.frytsjam.nl/fruitkwekerij/paalkamperen/,,Onbekend,https://images.unsplash.com/photo-1523987355523-c7b5b0dd90a7?auto=format&fit=crop&w=300&q=80
Camping De Zwammenberg,51.6282764,5.0115928,North Brabant,Onbekend,Nee,Nee,Onbekend,Onbekend,https://www.dezwammenberg.nl,+31 13 515 6010,Onbekend,https://images.unsplash.com/photo-1523987355523-c7b5b0dd90a7?auto=format&fit=crop&w=300&q=80
Paalkampeerplaats Harbrinkhoek,52.3824067,6.728716,Overijssel,Onbekend,Nee,Nee,3,Gratis,,,Onbekend,https://images.unsplash.com/photo-1523987355523-c7b5b0dd90a7?auto=format&fit=crop&w=300&q=80
Paalkampeerplaats Hondenven,52.4006597,6.7574343,Overijssel,Onbekend,Nee,Nee,Onbekend,Gratis,,,Onbekend,https://images.unsplash.com/photo-1523987355523-c7b5b0dd90a7?auto=format&fit=crop&w=300&q=80
Panoramahuisjen (Strandcamping Groede),51.3968223,3.4773741,Zeeland,Onbekend,Nee,Nee,Onbekend,Onbekend,,,Onbekend,https://images.unsplash.com/photo-1523987355523-c7b5b0dd90a7?auto=format&fit=crop&w=300&q=80
Boerencamping de Roos,53.2830847,5.7231003,Friesland,Onbekend,Nee,Nee,Onbekend,Onbekend,https://www.kamperen-bij-de-boer.com/boerencamping-de-roos.html,,Onbekend,https://images.unsplash.com/photo-1523987355523-c7b5b0dd90a7?auto=format&fit=crop&w=300&q=80
Landgoed de Camping & Dorps/Campingwinkel,53.3684831,6.7703155,Groningen,Onbekend,Nee,Nee,Onbekend,Onbekend,https://www.landgoeddecamping.nl,+31 6 33580731,Onbekend,https://images.unsplash.com/photo-1523987355523-c7b5b0dd90a7?auto=format&fit=crop&w=300&q=80
't Kopske,51.6468505,4.8095065,North Brabant,Onbekend,Nee,Nee,Onbekend,Onbekend,https://www.campingtkopske.nl/,+31 6 13142151,Onbekend,https://images.unsplash.com/photo-1523987355523-c7b5b0dd90a7?auto=format&fit=crop&w=300&q=80
De Kan Hoeve,53.0950373,5.9839227,Friesland,Onbekend,Ja,Nee,Onbekend,Onbekend,https://www.kanhoeve.nl,,Onbekend,https://images.unsplash.com/photo-1523987355523-c7b5b0dd90a7?auto=format&fit=crop&w=300&q=80
TT Circuit Glamping,52.9558607,6.5234537,Drenthe,Onbekend,Nee,Nee,Onbekend,Onbekend,https://www.eventcamping.nl/nl/tt-circuit-glamping-boeken.html,,"off; ""open at events""",https://images.unsplash.com/photo-1523987355523-c7b5b0dd90a7?auto=format&fit=crop&w=300&q=80
Mini camping de Hanze,52.5333428,5.8165205,Gelderland,Onbekend,Nee,Nee,Onbekend,Betaald,https://www.minicampingdehanze.nl,,Onbekend,https://images.unsplash.com/photo-1523987355523-c7b5b0dd90a7?auto=format&fit=crop&w=300&q=80
Camping Overbiel,52.1184024,6.5498655,Gelderland,Onbekend,Nee,Nee,Onbekend,Onbekend,http://www.campingoverbiel.nl,+31 545 261 442,Onbekend,https://images.unsplash.com/photo-1523987355523-c7b5b0dd90a7?auto=format&fit=crop&w=300&q=80
Naturisten Vereniging Hertogstad,51.7010032,5.4142093,North Brabant,Onbekend,Nee,Nee,Onbekend,Betaald,https://www.hertogstad.nl,+31 73 203 2064,Onbekend,https://images.unsplash.com/photo-1523987355523-c7b5b0dd90a7?auto=format&fit=crop&w=300&q=80
Natuurkampeerterrein Camping de Oldenhof,52.6689099,5.9818732,Overijssel,Onbekend,Nee,Nee,Onbekend,Onbekend,https://www.campingdeoldenhof.nl,+31 6 22601532;+31 6 13739756,Onbekend,https://images.unsplash.com/photo-1523987355523-c7b5b0dd90a7?auto=format&fit=crop&w=300&q=80
Natuurkampeerterrein Buitenhof,51.4720742,5.1416955,North Brabant,Onbekend,Nee,Nee,Onbekend,Onbekend,https://www.buitenhofhilvarenbeek.nl,+31 6 15164313,Onbekend,https://images.unsplash.com/photo-1523987355523-c7b5b0dd90a7?auto=format&fit=crop&w=300&q=80
"Camping ""De camping""",51.8810458,5.7990478,Gelderland,Onbekend,Nee,Nee,Onbekend,Onbekend,https://campingdecamping.nl/,,Onbekend,https://images.unsplash.com/photo-1523987355523-c7b5b0dd90a7?auto=format&fit=crop&w=300&q=80
Scharrelhoes,52.2168102,6.7822937,Overijssel,Onbekend,Nee,Nee,Onbekend,Onbekend,https://www.kampereninboekelo.nl/,,Onbekend,https://images.unsplash.com/photo-1523987355523-c7b5b0dd90a7?auto=format&fit=crop&w=300&q=80
Camping fort Everdingen,51.9615966,5.1739451,Gelderland,Onbekend,Ja,Nee,Onbekend,Onbekend,http://forteverdingen.com/camping,,Onbekend,https://images.unsplash.com/photo-1523987355523-c7b5b0dd90a7?auto=format&fit=crop&w=300&q=80
Camperplaats Hengelo (gld),52.0444072,6.3035452,Gelderland,Onbekend,Nee,Nee,2,Gratis,,,Onbekend,https://images.unsplash.com/photo-1523987355523-c7b5b0dd90a7?auto=format&fit=crop&w=300&q=80
Camperplaats 't Noorden Aalten,51.9333507,6.5818898,Gelderland,Onbekend,Ja,Nee,4,10 EUR/24 hours,https://achterhoek.nl/camperplaats-t-noorden,,Onbekend,https://images.unsplash.com/photo-1523987355523-c7b5b0dd90a7?auto=format&fit=crop&w=300&q=80
Park Florinata,52.1884272,5.6358116,Gelderland,Onbekend,Nee,Nee,Onbekend,Onbekend,https://florinata.nl,,Onbekend,https://images.unsplash.com/photo-1523987355523-c7b5b0dd90a7?auto=format&fit=crop&w=300&q=80
Beertjeshoeve,52.1887347,5.6364196,Gelderland,Onbekend,Nee,Nee,Onbekend,Onbekend,https://beertjeshoeve.nl/,,Onbekend,https://images.unsplash.com/photo-1523987355523-c7b5b0dd90a7?auto=format&fit=crop&w=300&q=80
Westdorp Limousin Texel,53.1441018,4.8566273,North Holland,Onbekend,Nee,Nee,Onbekend,Onbekend,http://www.sirrobert.nl/ligging/,,Onbekend,https://images.unsplash.com/photo-1523987355523-c7b5b0dd90a7?auto=format&fit=crop&w=300&q=80
Jachthaven Naarden,52.3085643,5.1461722,North Holland,Onbekend,Ja,Ja,20,30.80 EUR,https://www.campingcarpark.com/en_GB/stay/stopover-site-motorhome/hollande-septentrionale/14-hollande-septentionale/naarden,,Onbekend,https://images.unsplash.com/photo-1523987355523-c7b5b0dd90a7?auto=format&fit=crop&w=300&q=80
Camping De Uitwijk,51.6086442,4.2729567,North Brabant,Onbekend,Nee,Nee,Onbekend,Onbekend,https://campingdeuitwijk.nl,,Onbekend,https://images.unsplash.com/photo-1523987355523-c7b5b0dd90a7?auto=format&fit=crop&w=300&q=80
Camping De Katjeskelder,51.6289184,4.832498,North Brabant,Onbekend,Ja,Nee,102,Onbekend,https://www.katjeskelder.nl/,+31 88 044 4999,Onbekend,https://images.unsplash.com/photo-1523987355523-c7b5b0dd90a7?auto=format&fit=crop&w=300&q=80
De Boerenzwaluw,52.7487185,4.8320861,North Holland,Onbekend,Nee,Nee,Onbekend,Onbekend,https://campingboerenzwaluw.nl,,Onbekend,https://images.unsplash.com/photo-1523987355523-c7b5b0dd90a7?auto=format&fit=crop&w=300&q=80
Scouting de Waterberg,52.0186128,5.8947059,Gelderland,Onbekend,Nee,Nee,Onbekend,Onbekend,https://www.waterbergarnhem.nl,,Onbekend,https://images.unsplash.com/photo-1523987355523-c7b5b0dd90a7?auto=format&fit=crop&w=300&q=80
Natuurkampeerterrein Mariahoeve,52.9566175,6.6936189,Drenthe,Onbekend,Nee,Nee,Onbekend,Onbekend,https://www.landgoedmariahoeve.com/,+31 6 196 54 223,Onbekend,https://images.unsplash.com/photo-1523987355523-c7b5b0dd90a7?auto=format&fit=crop&w=300&q=80
Camping Dijk & Meer,52.7513864,5.194857,North Holland,Onbekend,Nee,Nee,Onbekend,Onbekend,https://www.campingdijkenmeer.nl/,+31 6 15675671,Onbekend,https://images.unsplash.com/photo-1523987355523-c7b5b0dd90a7?auto=format&fit=crop&w=300&q=80
Vakantiepark Kijkduin,52.0597264,4.2119343,South Holland,Onbekend,Nee,Nee,Onbekend,Onbekend,https://www.kijkduinpark.nl/het-park/camping,,Onbekend,https://images.unsplash.com/photo-1523987355523-c7b5b0dd90a7?auto=format&fit=crop&w=300&q=80
De Keuterij ( Mini-Camping ),51.6818924,5.8364546,North Brabant,Onbekend,Nee,Nee,Onbekend,Onbekend,https://www.dekeuterij.nl/,,Onbekend,https://images.unsplash.com/photo-1523987355523-c7b5b0dd90a7?auto=format&fit=crop&w=300&q=80
Het Wisbroek ( groepsaccomodatie en boerderijcamping ),51.6892824,5.8267236,North Brabant,Onbekend,Nee,Nee,Onbekend,Onbekend,https://www.hetwisbroek.nl/,,Onbekend,https://images.unsplash.com/photo-1523987355523-c7b5b0dd90a7?auto=format&fit=crop&w=300&q=80
Natuurkampeerterrein De Hocht,53.3985504,6.039558,Friesland,Onbekend,Nee,Nee,Onbekend,Onbekend,https://www.dehocht.nl,,Onbekend,https://images.unsplash.com/photo-1523987355523-c7b5b0dd90a7?auto=format&fit=crop&w=300&q=80
Oudlandse Hoeve,51.5636942,4.3204286,North Brabant,Onbekend,Nee,Nee,Onbekend,Onbekend,https://www.oudlandsehoeve.nl,,Onbekend,https://images.unsplash.com/photo-1523987355523-c7b5b0dd90a7?auto=format&fit=crop&w=300&q=80
Camping de Gouwe Stek,52.7078969,5.2540504,North Holland,Onbekend,Nee,Nee,Onbekend,Onbekend,https://degouwestek.nl,+31 228 516 958,Onbekend,https://images.unsplash.com/photo-1523987355523-c7b5b0dd90a7?auto=format&fit=crop&w=300&q=80
De Maar,53.3648108,6.4971763,Groningen,Onbekend,Nee,Nee,Onbekend,Onbekend,https://campingdemaar.nl/contact/,,Onbekend,https://images.unsplash.com/photo-1523987355523-c7b5b0dd90a7?auto=format&fit=crop&w=300&q=80
Minicamping Zus & Zus,51.8283651,5.68863,Gelderland,Ja,Ja,Nee,Onbekend,Betaald,https://www.minicampingzusenzus.nl,+31 6 22017485,Onbekend,https://images.unsplash.com/photo-1523987355523-c7b5b0dd90a7?auto=format&fit=crop&w=300&q=80
NTKC Limmen,52.5792268,4.6885845,North Holland,Onbekend,Ja,Nee,Onbekend,Onbekend,https://www.kampeerclub.nl/terrein/kampeerterrein-limmen,,Onbekend,https://images.unsplash.com/photo-1523987355523-c7b5b0dd90a7?auto=format&fit=crop&w=300&q=80
Natuurkampeerterrein Erve de Meester,52.4645806,6.7018333,Overijssel,Onbekend,Nee,Nee,Onbekend,Onbekend,https://www.erve-de-meester.nl/,,Onbekend,https://images.unsplash.com/photo-1523987355523-c7b5b0dd90a7?auto=format&fit=crop&w=300&q=80
Schreiershaven,51.9229162,4.1620171,South Holland,Onbekend,Nee,Nee,Onbekend,Onbekend,https://www.schreiershaven.nl,+31 6 57609162,Onbekend,https://images.unsplash.com/photo-1523987355523-c7b5b0dd90a7?auto=format&fit=crop&w=300&q=80
natuurkampeerterrein De Linden,52.9776079,7.0442528,Groningen,Onbekend,Nee,Nee,Onbekend,Onbekend,http://www.campingdelinden.nl/,,Onbekend,https://images.unsplash.com/photo-1523987355523-c7b5b0dd90a7?auto=format&fit=crop&w=300&q=80
De Kleine Witrijt,51.3134614,5.2750293,North Brabant,Onbekend,Nee,Nee,Onbekend,Onbekend,,,Onbekend,https://images.unsplash.com/photo-1523987355523-c7b5b0dd90a7?auto=format&fit=crop&w=300&q=80
Camping de Entekoele,52.6795759,6.4197976,Drenthe,Onbekend,Nee,Nee,Onbekend,Onbekend,https://www.deentekoele.nl/,+31 528 371 315,Onbekend,https://images.unsplash.com/photo-1523987355523-c7b5b0dd90a7?auto=format&fit=crop&w=300&q=80
Minicamping - Munnikenhof,51.6435859,4.7926341,North Brabant,Onbekend,Nee,Nee,100,Betaald,https://www.minicamping-munnikenhof.nl,+31 6 46760216,Onbekend,https://images.unsplash.com/photo-1523987355523-c7b5b0dd90a7?auto=format&fit=crop&w=300&q=80
Minicamping De Oosterweide,52.7008864,6.5421902,Drenthe,Onbekend,Nee,Nee,Onbekend,Onbekend,https://www.oosterweide.nl/,+31 6 52670709,Onbekend,https://images.unsplash.com/photo-1523987355523-c7b5b0dd90a7?auto=format&fit=crop&w=300&q=80
Camping Tussen De Wieken,52.7081951,6.5748713,Drenthe,Onbekend,Nee,Nee,Onbekend,Onbekend,https://www.campingtussendewieken.nl/,+31 528 341 448,Onbekend,https://images.unsplash.com/photo-1523987355523-c7b5b0dd90a7?auto=format&fit=crop&w=300&q=80
TentindeTuin,53.2193829,6.5162791,Groningen,Onbekend,Nee,Nee,Onbekend,Onbekend,https://detuinindestad.nl/de-camping/,,Onbekend,https://images.unsplash.com/photo-1523987355523-c7b5b0dd90a7?auto=format&fit=crop&w=300&q=80
Camping de Leigraaf,51.7746936,5.9746366,Gelderland,Onbekend,Nee,Nee,Onbekend,Betaald,https://www.campingdeleigraaf.nl/,+31 24 397 5945,Onbekend,https://images.unsplash.com/photo-1523987355523-c7b5b0dd90a7?auto=format&fit=crop&w=300&q=80
Munnickenheide,51.6415065,4.7906106,North Brabant,Onbekend,Nee,Nee,Onbekend,Onbekend,https://munnickenheide.nl/,,Onbekend,https://images.unsplash.com/photo-1523987355523-c7b5b0dd90a7?auto=format&fit=crop&w=300&q=80
Erve 't Byvanck,52.0945377,6.5608982,Gelderland,Onbekend,Nee,Nee,Onbekend,Onbekend,,,Onbekend,https://images.unsplash.com/photo-1523987355523-c7b5b0dd90a7?auto=format&fit=crop&w=300&q=80
Villapark de Weerribben,52.8104323,6.0015392,Overijssel,Onbekend,Nee,Nee,Onbekend,Onbekend,,,Onbekend,https://images.unsplash.com/photo-1523987355523-c7b5b0dd90a7?auto=format&fit=crop&w=300&q=80
Camping 't Nije Hof,52.9900842,6.9401922,Groningen,Onbekend,Nee,Nee,Onbekend,Onbekend,https://www.nijehof.nl/,,Onbekend,https://images.unsplash.com/photo-1523987355523-c7b5b0dd90a7?auto=format&fit=crop&w=300&q=80
Paalcamping Twickel,52.2843654,6.7180089,Overijssel,Onbekend,Nee,Nee,2,Gratis,,,Onbekend,https://images.unsplash.com/photo-1523987355523-c7b5b0dd90a7?auto=format&fit=crop&w=300&q=80
Boerderijcamping Don Voorzorg,53.053444,4.8323283,North Holland,Onbekend,Nee,Nee,Onbekend,Betaald,,,Onbekend,https://images.unsplash.com/photo-1523987355523-c7b5b0dd90a7?auto=format&fit=crop&w=300&q=80
Camperplaats Velpen,52.3318597,7.0128563,Overijssel,Onbekend,Nee,Nee,Onbekend,Onbekend,https://www.ervevelpen.nl/,,Onbekend,https://images.unsplash.com/photo-1523987355523-c7b5b0dd90a7?auto=format&fit=crop&w=300&q=80
Camperplaats Erve Velpen,52.3318722,7.012864,Overijssel,Onbekend,Nee,Nee,Onbekend,Onbekend,,,Onbekend,https://images.unsplash.com/photo-1523987355523-c7b5b0dd90a7?auto=format&fit=crop&w=300&q=80
Camperplaats fam. Pullen,52.5892362,6.5921866,Overijssel,Onbekend,Nee,Nee,Onbekend,Onbekend,,,Onbekend,https://images.unsplash.com/photo-1523987355523-c7b5b0dd90a7?auto=format&fit=crop&w=300&q=80
Minicamping De Geelders,51.5850355,5.4008946,North Brabant,Onbekend,Nee,Nee,Onbekend,Onbekend,https://www.campingdegeelders.nl/,+31 6 12303463,Onbekend,https://images.unsplash.com/photo-1523987355523-c7b5b0dd90a7?auto=format&fit=crop&w=300&q=80
Runsvoort,51.6372222,5.1916667,North Brabant,Onbekend,Nee,Nee,Onbekend,Onbekend,https://www.runsvoort.nl,,Onbekend,https://images.unsplash.com/photo-1523987355523-c7b5b0dd90a7?auto=format&fit=crop&w=300&q=80
De Reuten,51.511344,5.359831,North Brabant,Onbekend,Nee,Nee,Onbekend,Onbekend,https://www.dereuten.com/,+31 6 51355969,Onbekend,https://images.unsplash.com/photo-1523987355523-c7b5b0dd90a7?auto=format&fit=crop&w=300&q=80
Geitenbrij,51.750037,4.90755,North Brabant,Onbekend,Ja,Nee,Onbekend,Onbekend,https://www.campingdegeitenbrij.nl,,Onbekend,https://images.unsplash.com/photo-1523987355523-c7b5b0dd90a7?auto=format&fit=crop&w=300&q=80
Naamloze Locatie,51.5140879,5.1217014,North Brabant,Onbekend,Nee,Nee,Onbekend,Onbekend,,,Onbekend,https://images.unsplash.com/photo-1523987355523-c7b5b0dd90a7?auto=format&fit=crop&w=300&q=80
Naamloze Locatie,52.302711,5.3204254,Utrecht,Onbekend,Nee,Nee,Onbekend,Gratis,,,Onbekend,https://images.unsplash.com/photo-1523987355523-c7b5b0dd90a7?auto=format&fit=crop&w=300&q=80
Camping De Blijer Wadden,53.3414931,5.8896694,Friesland,Onbekend,Nee,Nee,Onbekend,Onbekend,https://www.campingblijerwadden.nl,+31 6 15378578,Onbekend,https://images.unsplash.com/photo-1523987355523-c7b5b0dd90a7?auto=format&fit=crop&w=300&q=80
Scoutcentrum Achter de Berg,51.6880328,5.5659538,North Brabant,Onbekend,Nee,Nee,Onbekend,Onbekend,https://www.achterdeberg.nl/index_nl.php,,Onbekend,https://images.unsplash.com/photo-1523987355523-c7b5b0dd90a7?auto=format&fit=crop&w=300&q=80
Scoutingkampeerterrein Buitenlust,51.5126459,4.3061189,North Brabant,Onbekend,Nee,Nee,Onbekend,Onbekend,,,Onbekend,https://images.unsplash.com/photo-1523987355523-c7b5b0dd90a7?auto=format&fit=crop&w=300&q=80
Mini camping Brinkman,52.0958684,6.4824595,Gelderland,Onbekend,Nee,Nee,Onbekend,Onbekend,,,Onbekend,https://images.unsplash.com/photo-1523987355523-c7b5b0dd90a7?auto=format&fit=crop&w=300&q=80
Camperplaats Landgoed de Stekkenkamp,52.5108455,6.4391865,Overijssel,Ja,Ja,Ja,14,15.10 EUR,https://www.stekkenkamp.nl/camperplaats/,+31 529 451 193,Onbekend,https://images.unsplash.com/photo-1523987355523-c7b5b0dd90a7?auto=format&fit=crop&w=300&q=80
Camerplaats Spoordok,52.9269982,7.0141663,Groningen,Onbekend,Nee,Nee,Onbekend,18.35,,,Onbekend,https://images.unsplash.com/photo-1523987355523-c7b5b0dd90a7?auto=format&fit=crop&w=300&q=80
Marleseveld,52.3995592,6.5088154,Overijssel,Ja,Ja,Ja,6,13 EUR,https://www.marleseveld.nl/camping,,Onbekend,https://images.unsplash.com/photo-1523987355523-c7b5b0dd90a7?auto=format&fit=crop&w=300&q=80
Camping De Bleek,52.6105688,4.6394738,North Holland,Onbekend,Nee,Nee,Onbekend,Betaald,https://svr.nl,+31 72 506 1593,Onbekend,https://images.unsplash.com/photo-1523987355523-c7b5b0dd90a7?auto=format&fit=crop&w=300&q=80
Camping Het Einde,51.3299212,5.5311817,North Brabant,Onbekend,Nee,Nee,Onbekend,Onbekend,http://www.campingheteinde.nl,+31 6 51867302,Onbekend,https://images.unsplash.com/photo-1523987355523-c7b5b0dd90a7?auto=format&fit=crop&w=300&q=80
Camping de Zandberg,51.3303066,5.5338049,North Brabant,Onbekend,Nee,Nee,Onbekend,Onbekend,https://www.dezandbergleende.nl/,+31 40 206 1357,Onbekend,https://images.unsplash.com/photo-1523987355523-c7b5b0dd90a7?auto=format&fit=crop&w=300&q=80
Marina Stavoren,52.8731881,5.3685431,Friesland,Onbekend,Nee,Nee,Onbekend,Betaald,,,Onbekend,https://images.unsplash.com/photo-1523987355523-c7b5b0dd90a7?auto=format&fit=crop&w=300&q=80
Kuikseind,51.4540268,5.2443034,North Brabant,Onbekend,Nee,Nee,50,Betaald,https://kuikseind.zonenleven.nl/,,Onbekend,https://images.unsplash.com/photo-1523987355523-c7b5b0dd90a7?auto=format&fit=crop&w=300&q=80
TT camping Jan en Bertha,52.9738112,6.5317824,Drenthe,Onbekend,Nee,Nee,Onbekend,Onbekend,,,Onbekend,https://images.unsplash.com/photo-1523987355523-c7b5b0dd90a7?auto=format&fit=crop&w=300&q=80
Glamping de Oever,51.9229325,5.4333934,Gelderland,Onbekend,Nee,Nee,Onbekend,Onbekend,,,Onbekend,https://images.unsplash.com/photo-1523987355523-c7b5b0dd90a7?auto=format&fit=crop&w=300&q=80
Burgerfarm,52.7538113,4.8063483,North Holland,Onbekend,Nee,Nee,Onbekend,Onbekend,https://burgerfarmcamping.nl,,Onbekend,https://images.unsplash.com/photo-1523987355523-c7b5b0dd90a7?auto=format&fit=crop&w=300&q=80
Camping Maas en Waal,51.87044,5.6464845,Gelderland,Onbekend,Nee,Nee,Onbekend,Onbekend,https://www.camping-maasenwaal.eu/,,Onbekend,https://images.unsplash.com/photo-1523987355523-c7b5b0dd90a7?auto=format&fit=crop&w=300&q=80
De Möllenhook,51.9230203,6.5168624,Gelderland,Onbekend,Nee,Nee,5,Onbekend,https://www.demolenhoek.net/,,Onbekend,https://images.unsplash.com/photo-1523987355523-c7b5b0dd90a7?auto=format&fit=crop&w=300&q=80
Camping De Fruitboom,51.9493148,5.5424216,Gelderland,Onbekend,Nee,Nee,Onbekend,Onbekend,https://camping-defruitboom.nl,,Onbekend,https://images.unsplash.com/photo-1523987355523-c7b5b0dd90a7?auto=format&fit=crop&w=300&q=80
Minicamping de Spijken,51.7645116,5.2190857,Gelderland,Onbekend,Nee,Nee,Onbekend,Onbekend,https://www.despijken.nl/,,Onbekend,https://images.unsplash.com/photo-1523987355523-c7b5b0dd90a7?auto=format&fit=crop&w=300&q=80
Kanokampeerplek Giethoorn-Oost,52.7467256,6.103777,Overijssel,Onbekend,Nee,Nee,Onbekend,Gratis,,,Onbekend,https://images.unsplash.com/photo-1523987355523-c7b5b0dd90a7?auto=format&fit=crop&w=300&q=80
Kanokampeerplek Walengracht,52.709786,6.0289491,Overijssel,Onbekend,Nee,Nee,Onbekend,Gratis,,,Onbekend,https://images.unsplash.com/photo-1523987355523-c7b5b0dd90a7?auto=format&fit=crop&w=300&q=80
Vogelhof,51.5226425,5.5735702,North Brabant,Onbekend,Nee,Nee,Onbekend,12 EUR,,,Onbekend,https://images.unsplash.com/photo-1523987355523-c7b5b0dd90a7?auto=format&fit=crop&w=300&q=80
OP29,53.1132641,6.2849361,Groningen,Onbekend,Nee,Nee,Onbekend,Onbekend,,,Onbekend,https://images.unsplash.com/photo-1523987355523-c7b5b0dd90a7?auto=format&fit=crop&w=300&q=80
Welkom op de boerderij,52.6473383,5.7178547,Flevoland,Onbekend,Nee,Nee,Onbekend,Onbekend,https://welkomopdeboerderij.blog/,,Onbekend,https://images.unsplash.com/photo-1523987355523-c7b5b0dd90a7?auto=format&fit=crop&w=300&q=80
Entourage,53.063565,7.1838925,Groningen,Onbekend,Nee,Nee,Onbekend,Onbekend,https://www.komnaarentourage.nl/nl/camping,+31 6 14677629,Onbekend,https://images.unsplash.com/photo-1523987355523-c7b5b0dd90a7?auto=format&fit=crop&w=300&q=80
Landgoed Clootwijck,51.7816188,4.9651156,North Brabant,Onbekend,Nee,Nee,Onbekend,Betaald,https://www.clootwijck.nl/,,Onbekend,https://images.unsplash.com/photo-1523987355523-c7b5b0dd90a7?auto=format&fit=crop&w=300&q=80
D'n Driehoek,51.7225783,5.8409615,North Brabant,Onbekend,Ja,Nee,Onbekend,Betaald,https://campingdriehoekbeers.nl,,Onbekend,https://images.unsplash.com/photo-1523987355523-c7b5b0dd90a7?auto=format&fit=crop&w=300&q=80
Boerhaaveplaats,52.1690438,4.4821716,South Holland,Onbekend,Ja,Nee,10,Betaald,,+31 6 53482844,Fr-Mo; Fr 00:00-18:00 off; Mo 08:00-24:00 off,https://images.unsplash.com/photo-1523987355523-c7b5b0dd90a7?auto=format&fit=crop&w=300&q=80
Hof van Kolham,53.1840755,6.7343848,Groningen,Onbekend,Nee,Nee,Onbekend,Onbekend,https://www.hofvankolham.nl/,,Onbekend,https://images.unsplash.com/photo-1523987355523-c7b5b0dd90a7?auto=format&fit=crop&w=300&q=80
Minicamping De Huifkar,53.0673369,6.27108,Groningen,Onbekend,Nee,Nee,Onbekend,Onbekend,https://www.huifkar-friesland.nl,+31 516 541 509,Onbekend,https://images.unsplash.com/photo-1523987355523-c7b5b0dd90a7?auto=format&fit=crop&w=300&q=80
Camping 't Oekeltje,51.5007364,4.7059423,North Brabant,Onbekend,Nee,Nee,Onbekend,Betaald,,,Onbekend,https://images.unsplash.com/photo-1523987355523-c7b5b0dd90a7?auto=format&fit=crop&w=300&q=80
Oetdoor,52.1122404,6.5478352,Gelderland,Onbekend,Nee,Nee,Onbekend,Onbekend,https://www.oetdoor.nl/,,Onbekend,https://images.unsplash.com/photo-1523987355523-c7b5b0dd90a7?auto=format&fit=crop&w=300&q=80
Sleenerzand Mini camping,52.8011074,6.8063805,Drenthe,Onbekend,Nee,Nee,Onbekend,Onbekend,https://sleenerzand.nl/,+31 591 202 920,Onbekend,https://images.unsplash.com/photo-1523987355523-c7b5b0dd90a7?auto=format&fit=crop&w=300&q=80
Camping Buitenpost,52.2464497,6.127188,Gelderland,Onbekend,Nee,Nee,Onbekend,Onbekend,https://bijbuitenpost.nl/camping/,,Onbekend,https://images.unsplash.com/photo-1523987355523-c7b5b0dd90a7?auto=format&fit=crop&w=300&q=80
"SVR minicamping ""t Ommetje",51.9322034,5.460822,Gelderland,Onbekend,Nee,Nee,25,Onbekend,,,Onbekend,https://images.unsplash.com/photo-1523987355523-c7b5b0dd90a7?auto=format&fit=crop&w=300&q=80
Camping de Stouwe,52.738975,6.0909733,Overijssel,Onbekend,Nee,Nee,Onbekend,Onbekend,https://www.campingdestouwe.nl,+31 521 361 473,Onbekend,https://images.unsplash.com/photo-1523987355523-c7b5b0dd90a7?auto=format&fit=crop&w=300&q=80
De Eikenhof,52.7051054,6.5516688,Drenthe,Onbekend,Nee,Nee,Onbekend,Onbekend,,,Onbekend,https://images.unsplash.com/photo-1523987355523-c7b5b0dd90a7?auto=format&fit=crop&w=300&q=80
Minicamping en Theetuin Aldsyl,53.3220864,5.9714308,Friesland,Onbekend,Nee,Nee,Onbekend,Onbekend,https://www.minicamping-aldsyl.nl/,+31 6 18405808,Onbekend,https://images.unsplash.com/photo-1523987355523-c7b5b0dd90a7?auto=format&fit=crop&w=300&q=80
Minicamping de Loenense Brug,52.1425555,6.0422078,Gelderland,Onbekend,Nee,Nee,Onbekend,Onbekend,https://www.deloenensebrug.nl/,,Onbekend,https://images.unsplash.com/photo-1523987355523-c7b5b0dd90a7?auto=format&fit=crop&w=300&q=80
Minicamping Kooningsveld,52.029479,5.822969,Gelderland,Onbekend,Nee,Nee,Onbekend,Onbekend,https://www.camping-kooningsveld.nl,,Onbekend,https://images.unsplash.com/photo-1523987355523-c7b5b0dd90a7?auto=format&fit=crop&w=300&q=80
Boerderijcamping de Zonnehorst,52.5984721,6.2849252,Overijssel,Onbekend,Nee,Nee,Onbekend,Onbekend,https://www.zonnehorst.nl/boerderij-camping,+31 529 483 463,Onbekend,https://images.unsplash.com/photo-1523987355523-c7b5b0dd90a7?auto=format&fit=crop&w=300&q=80
Natuurcamping de Joxhorst,52.370253,6.2343451,Overijssel,Onbekend,Nee,Nee,Onbekend,Betaald,https://joxhorst.nl/,,Onbekend,https://images.unsplash.com/photo-1523987355523-c7b5b0dd90a7?auto=format&fit=crop&w=300&q=80
Camping de Torenvalk,51.3581285,5.9278447,Limburg,Onbekend,Nee,Nee,Onbekend,Onbekend,http://www.campingdetorenvalk.nl/,,Onbekend,https://images.unsplash.com/photo-1523987355523-c7b5b0dd90a7?auto=format&fit=crop&w=300&q=80
Natuurkampeerterrein Ta Fête,51.9588594,4.3531434,South Holland,Onbekend,Ja,Nee,10,Onbekend,https://buitengoedtafete.nl/camping/,+31 6 22405572,Onbekend,https://images.unsplash.com/photo-1523987355523-c7b5b0dd90a7?auto=format&fit=crop&w=300&q=80
El Dorado,51.7044077,3.7338603,Zeeland,Onbekend,Nee,Nee,Onbekend,Onbekend,https://eldoradohaamstede.nl/camping/,+31 111 653 253,Onbekend,https://images.unsplash.com/photo-1523987355523-c7b5b0dd90a7?auto=format&fit=crop&w=300&q=80
Smallegange's Dijk,51.6901306,3.7819151,Zeeland,Onbekend,Nee,Nee,Onbekend,Onbekend,http://www.campingsmallegangesdijk.nl,+31 111 658 176,Onbekend,https://images.unsplash.com/photo-1523987355523-c7b5b0dd90a7?auto=format&fit=crop&w=300&q=80
